<?xml version="1.0" encoding="UTF-8" standalone="no" ?><gpx version="1.1" creator="RepeaterBook" xmlns="http://www.topografix.com/GPX/1/1" xmlns:gpxx="http://www.garmin.com/xmlschemas/GpxExtensions/v3" xmlns:xsi="http://www.w3.org/2001/XMLSchema-instance" xsi:schemaLocation="http://www.topografix.com/GPX/1/1 http://www.topografix.com/GPX/1/1/gpx.xsd http://www.garmin.com/xmlschemas/GpxExtensions/v3 http://www8.garmin.com/xmlschemas/GpxExtensionsv3.xsd">
    <wpt lat="40.59" lon="-83.13">

    <name>W8MRN 449.737500- 123.0</name>
    <cmt>
      Marion W8MRN OPEN    </cmt>
    <desc>
      Marion W8MRN OPEN    </desc>
    <sym>Tall Tower</sym>
    <extensions>
      <gpxx:WaypointExtension>
        <gpxx:DisplayMode>SymbolAndName</gpxx:DisplayMode>
        <gpxx:Categories>
          <gpxx:Category>REPEATERS</gpxx:Category>
        </gpxx:Categories>
      </gpxx:WaypointExtension>
    </extensions>
  </wpt>
    <wpt lat="40.58869934" lon="-83.12850189">

    <name>WW8MRN 447.012500- 123.0</name>
    <cmt>
      Marion WW8MRN OPEN    </cmt>
    <desc>
      Marion WW8MRN OPEN    </desc>
    <sym>Tall Tower</sym>
    <extensions>
      <gpxx:WaypointExtension>
        <gpxx:DisplayMode>SymbolAndName</gpxx:DisplayMode>
        <gpxx:Categories>
          <gpxx:Category>REPEATERS</gpxx:Category>
        </gpxx:Categories>
      </gpxx:WaypointExtension>
    </extensions>
  </wpt>
    <wpt lat="39.69" lon="-83.92">

    <name>K7UDZ 446.012500- </name>
    <cmt>
      Xenia, Fairgrounds K7UDZ OPEN    </cmt>
    <desc>
      Xenia, Fairgrounds K7UDZ OPEN    </desc>
    <sym>Tall Tower</sym>
    <extensions>
      <gpxx:WaypointExtension>
        <gpxx:DisplayMode>SymbolAndName</gpxx:DisplayMode>
        <gpxx:Categories>
          <gpxx:Category>REPEATERS</gpxx:Category>
        </gpxx:Categories>
      </gpxx:WaypointExtension>
    </extensions>
  </wpt>
    <wpt lat="40.59" lon="-83.13">

    <name>KC8BPE 444.987500+ 110.9</name>
    <cmt>
      Marion KC8BPE OPEN    </cmt>
    <desc>
      Marion KC8BPE OPEN    </desc>
    <sym>Tall Tower</sym>
    <extensions>
      <gpxx:WaypointExtension>
        <gpxx:DisplayMode>SymbolAndName</gpxx:DisplayMode>
        <gpxx:Categories>
          <gpxx:Category>REPEATERS</gpxx:Category>
        </gpxx:Categories>
      </gpxx:WaypointExtension>
    </extensions>
  </wpt>
    <wpt lat="39.35331592" lon="-84.41709728">

    <name>KD8LBS 444.975000+ D223</name>
    <cmt>
      West Chester KD8LBS OPEN    </cmt>
    <desc>
      West Chester KD8LBS OPEN    </desc>
    <sym>Tall Tower</sym>
    <extensions>
      <gpxx:WaypointExtension>
        <gpxx:DisplayMode>SymbolAndName</gpxx:DisplayMode>
        <gpxx:Categories>
          <gpxx:Category>REPEATERS</gpxx:Category>
        </gpxx:Categories>
      </gpxx:WaypointExtension>
    </extensions>
  </wpt>
    <wpt lat="41.45" lon="-81.27">

    <name>K8SGX 444.975000+ D251</name>
    <cmt>
      Newbury K8SGX OPEN    </cmt>
    <desc>
      Newbury K8SGX OPEN    </desc>
    <sym>Tall Tower</sym>
    <extensions>
      <gpxx:WaypointExtension>
        <gpxx:DisplayMode>SymbolAndName</gpxx:DisplayMode>
        <gpxx:Categories>
          <gpxx:Category>REPEATERS</gpxx:Category>
        </gpxx:Categories>
      </gpxx:WaypointExtension>
    </extensions>
  </wpt>
    <wpt lat="40.90" lon="-80.86">

    <name>K8BTP 444.962500+ </name>
    <cmt>
      Salem K8BTP OPEN    </cmt>
    <desc>
      Salem K8BTP OPEN    </desc>
    <sym>Tall Tower</sym>
    <extensions>
      <gpxx:WaypointExtension>
        <gpxx:DisplayMode>SymbolAndName</gpxx:DisplayMode>
        <gpxx:Categories>
          <gpxx:Category>REPEATERS</gpxx:Category>
        </gpxx:Categories>
      </gpxx:WaypointExtension>
    </extensions>
  </wpt>
    <wpt lat="39.94" lon="-82.01">

    <name>KD8USF 444.950000+ 91.5</name>
    <cmt>
      Zanesville KD8USF OPEN    </cmt>
    <desc>
      Zanesville KD8USF OPEN    </desc>
    <sym>Tall Tower</sym>
    <extensions>
      <gpxx:WaypointExtension>
        <gpxx:DisplayMode>SymbolAndName</gpxx:DisplayMode>
        <gpxx:Categories>
          <gpxx:Category>REPEATERS</gpxx:Category>
        </gpxx:Categories>
      </gpxx:WaypointExtension>
    </extensions>
  </wpt>
    <wpt lat="41.65133500" lon="-83.53531600">

    <name>N8LPQ 444.950000+ 103.5</name>
    <cmt>
      Toledo N8LPQ OPEN    </cmt>
    <desc>
      Toledo N8LPQ OPEN    </desc>
    <sym>Tall Tower</sym>
    <extensions>
      <gpxx:WaypointExtension>
        <gpxx:DisplayMode>SymbolAndName</gpxx:DisplayMode>
        <gpxx:Categories>
          <gpxx:Category>REPEATERS</gpxx:Category>
        </gpxx:Categories>
      </gpxx:WaypointExtension>
    </extensions>
  </wpt>
    <wpt lat="39.24723000" lon="-84.14806000">

    <name>W8GNT 444.950000+ 123.0</name>
    <cmt>
      Lebanon W8GNT OPEN    </cmt>
    <desc>
      Lebanon W8GNT OPEN    </desc>
    <sym>Tall Tower</sym>
    <extensions>
      <gpxx:WaypointExtension>
        <gpxx:DisplayMode>SymbolAndName</gpxx:DisplayMode>
        <gpxx:Categories>
          <gpxx:Category>REPEATERS</gpxx:Category>
        </gpxx:Categories>
      </gpxx:WaypointExtension>
    </extensions>
  </wpt>
    <wpt lat="41.21" lon="-83.90">

    <name>KC8QYH 444.937500+ 103.5</name>
    <cmt>
      Deshler KC8QYH OPEN    </cmt>
    <desc>
      Deshler KC8QYH OPEN    </desc>
    <sym>Tall Tower</sym>
    <extensions>
      <gpxx:WaypointExtension>
        <gpxx:DisplayMode>SymbolAndName</gpxx:DisplayMode>
        <gpxx:Categories>
          <gpxx:Category>REPEATERS</gpxx:Category>
        </gpxx:Categories>
      </gpxx:WaypointExtension>
    </extensions>
  </wpt>
    <wpt lat="41.64369965" lon="-83.48690033">

    <name>W8MTU 444.925000+ 103.5</name>
    <cmt>
      Oregon W8MTU OPEN    </cmt>
    <desc>
      Oregon W8MTU OPEN    </desc>
    <sym>Tall Tower</sym>
    <extensions>
      <gpxx:WaypointExtension>
        <gpxx:DisplayMode>SymbolAndName</gpxx:DisplayMode>
        <gpxx:Categories>
          <gpxx:Category>REPEATERS</gpxx:Category>
        </gpxx:Categories>
      </gpxx:WaypointExtension>
    </extensions>
  </wpt>
    <wpt lat="41.07920074" lon="-81.94719696">

    <name>W8EOC 444.925000+ 131.8</name>
    <cmt>
      Lafayette Township W8EOC OPEN    </cmt>
    <desc>
      Lafayette Township W8EOC OPEN    </desc>
    <sym>Tall Tower</sym>
    <extensions>
      <gpxx:WaypointExtension>
        <gpxx:DisplayMode>SymbolAndName</gpxx:DisplayMode>
        <gpxx:Categories>
          <gpxx:Category>REPEATERS</gpxx:Category>
        </gpxx:Categories>
      </gpxx:WaypointExtension>
    </extensions>
  </wpt>
    <wpt lat="40.65" lon="-84.15">

    <name>W8EQ 444.925000+ </name>
    <cmt>
      Cridersville W8EQ OPEN    </cmt>
    <desc>
      Cridersville W8EQ OPEN    </desc>
    <sym>Tall Tower</sym>
    <extensions>
      <gpxx:WaypointExtension>
        <gpxx:DisplayMode>SymbolAndName</gpxx:DisplayMode>
        <gpxx:Categories>
          <gpxx:Category>REPEATERS</gpxx:Category>
        </gpxx:Categories>
      </gpxx:WaypointExtension>
    </extensions>
  </wpt>
    <wpt lat="39.10" lon="-84.51">

    <name>K8CF 444.925000+ </name>
    <cmt>
      Cincinnati K8CF OPEN    </cmt>
    <desc>
      Cincinnati K8CF OPEN    </desc>
    <sym>Tall Tower</sym>
    <extensions>
      <gpxx:WaypointExtension>
        <gpxx:DisplayMode>SymbolAndName</gpxx:DisplayMode>
        <gpxx:Categories>
          <gpxx:Category>REPEATERS</gpxx:Category>
        </gpxx:Categories>
      </gpxx:WaypointExtension>
    </extensions>
  </wpt>
    <wpt lat="40.55" lon="-82.83">

    <name>WN7C 444.912500+ </name>
    <cmt>
      Mount Gilead WN7C OPEN    </cmt>
    <desc>
      Mount Gilead WN7C OPEN    </desc>
    <sym>Tall Tower</sym>
    <extensions>
      <gpxx:WaypointExtension>
        <gpxx:DisplayMode>SymbolAndName</gpxx:DisplayMode>
        <gpxx:Categories>
          <gpxx:Category>REPEATERS</gpxx:Category>
        </gpxx:Categories>
      </gpxx:WaypointExtension>
    </extensions>
  </wpt>
    <wpt lat="40.28" lon="-84.16">

    <name>N6JSX 444.887500+ 107.2</name>
    <cmt>
      Sidney N6JSX OPEN    </cmt>
    <desc>
      Sidney N6JSX OPEN    </desc>
    <sym>Tall Tower</sym>
    <extensions>
      <gpxx:WaypointExtension>
        <gpxx:DisplayMode>SymbolAndName</gpxx:DisplayMode>
        <gpxx:Categories>
          <gpxx:Category>REPEATERS</gpxx:Category>
        </gpxx:Categories>
      </gpxx:WaypointExtension>
    </extensions>
  </wpt>
    <wpt lat="40.55" lon="-81.92">

    <name>KD8CJ 444.875000+ 131.8</name>
    <cmt>
      Millersburg KD8CJ OPEN    </cmt>
    <desc>
      Millersburg KD8CJ OPEN    </desc>
    <sym>Tall Tower</sym>
    <extensions>
      <gpxx:WaypointExtension>
        <gpxx:DisplayMode>SymbolAndName</gpxx:DisplayMode>
        <gpxx:Categories>
          <gpxx:Category>REPEATERS</gpxx:Category>
        </gpxx:Categories>
      </gpxx:WaypointExtension>
    </extensions>
  </wpt>
    <wpt lat="40.87" lon="-84.58">

    <name>W8FY 444.850000+ 136.5</name>
    <cmt>
      Van Wert W8FY CLOSED    </cmt>
    <desc>
      Van Wert W8FY CLOSED    </desc>
    <sym>Tall Tower</sym>
    <extensions>
      <gpxx:WaypointExtension>
        <gpxx:DisplayMode>SymbolAndName</gpxx:DisplayMode>
        <gpxx:Categories>
          <gpxx:Category>REPEATERS</gpxx:Category>
        </gpxx:Categories>
      </gpxx:WaypointExtension>
    </extensions>
  </wpt>
    <wpt lat="41.68022670" lon="-83.50960260">

    <name>N8LPQ  444.850000+ </name>
    <cmt>
      Toledo N8LPQ  OPEN    </cmt>
    <desc>
      Toledo N8LPQ  OPEN    </desc>
    <sym>Tall Tower</sym>
    <extensions>
      <gpxx:WaypointExtension>
        <gpxx:DisplayMode>SymbolAndName</gpxx:DisplayMode>
        <gpxx:Categories>
          <gpxx:Category>REPEATERS</gpxx:Category>
        </gpxx:Categories>
      </gpxx:WaypointExtension>
    </extensions>
  </wpt>
    <wpt lat="41.13" lon="-81.48">

    <name>W8VPV 444.850000+ 110.9</name>
    <cmt>
      Cuyahoga Falls W8VPV OPEN    </cmt>
    <desc>
      Cuyahoga Falls W8VPV OPEN    </desc>
    <sym>Tall Tower</sym>
    <extensions>
      <gpxx:WaypointExtension>
        <gpxx:DisplayMode>SymbolAndName</gpxx:DisplayMode>
        <gpxx:Categories>
          <gpxx:Category>REPEATERS</gpxx:Category>
        </gpxx:Categories>
      </gpxx:WaypointExtension>
    </extensions>
  </wpt>
    <wpt lat="39.96117550" lon="-82.99879420">

    <name>KD8USF 444.850000+ </name>
    <cmt>
      Columbus KD8USF OPEN    </cmt>
    <desc>
      Columbus KD8USF OPEN    </desc>
    <sym>Tall Tower</sym>
    <extensions>
      <gpxx:WaypointExtension>
        <gpxx:DisplayMode>SymbolAndName</gpxx:DisplayMode>
        <gpxx:Categories>
          <gpxx:Category>REPEATERS</gpxx:Category>
        </gpxx:Categories>
      </gpxx:WaypointExtension>
    </extensions>
  </wpt>
    <wpt lat="41.24" lon="-80.82">

    <name>WA8ILI 444.837500+ </name>
    <cmt>
      Warren WA8ILI OPEN    </cmt>
    <desc>
      Warren WA8ILI OPEN    </desc>
    <sym>Tall Tower</sym>
    <extensions>
      <gpxx:WaypointExtension>
        <gpxx:DisplayMode>SymbolAndName</gpxx:DisplayMode>
        <gpxx:Categories>
          <gpxx:Category>REPEATERS</gpxx:Category>
        </gpxx:Categories>
      </gpxx:WaypointExtension>
    </extensions>
  </wpt>
    <wpt lat="40.14" lon="-84.24">

    <name>W8AK 444.837500+ </name>
    <cmt>
      Piqua W8AK OPEN    </cmt>
    <desc>
      Piqua W8AK OPEN    </desc>
    <sym>Tall Tower</sym>
    <extensions>
      <gpxx:WaypointExtension>
        <gpxx:DisplayMode>SymbolAndName</gpxx:DisplayMode>
        <gpxx:Categories>
          <gpxx:Category>REPEATERS</gpxx:Category>
        </gpxx:Categories>
      </gpxx:WaypointExtension>
    </extensions>
  </wpt>
    <wpt lat="41.11" lon="-83.18">

    <name>W3BWW 444.825000+ </name>
    <cmt>
      Tiffin W3BWW OPEN    </cmt>
    <desc>
      Tiffin W3BWW OPEN    </desc>
    <sym>Tall Tower</sym>
    <extensions>
      <gpxx:WaypointExtension>
        <gpxx:DisplayMode>SymbolAndName</gpxx:DisplayMode>
        <gpxx:Categories>
          <gpxx:Category>REPEATERS</gpxx:Category>
        </gpxx:Categories>
      </gpxx:WaypointExtension>
    </extensions>
  </wpt>
    <wpt lat="40.39730072" lon="-81.56210327">

    <name>W8ZX 444.825000+ 71.9</name>
    <cmt>
      Stone Creek W8ZX OPEN    </cmt>
    <desc>
      Stone Creek W8ZX OPEN    </desc>
    <sym>Tall Tower</sym>
    <extensions>
      <gpxx:WaypointExtension>
        <gpxx:DisplayMode>SymbolAndName</gpxx:DisplayMode>
        <gpxx:Categories>
          <gpxx:Category>REPEATERS</gpxx:Category>
        </gpxx:Categories>
      </gpxx:WaypointExtension>
    </extensions>
  </wpt>
    <wpt lat="39.52" lon="-84.40">

    <name>W8BLV 444.825000+ 77.0</name>
    <cmt>
      Middletown W8BLV OPEN    </cmt>
    <desc>
      Middletown W8BLV OPEN    </desc>
    <sym>Tall Tower</sym>
    <extensions>
      <gpxx:WaypointExtension>
        <gpxx:DisplayMode>SymbolAndName</gpxx:DisplayMode>
        <gpxx:Categories>
          <gpxx:Category>REPEATERS</gpxx:Category>
        </gpxx:Categories>
      </gpxx:WaypointExtension>
    </extensions>
  </wpt>
    <wpt lat="40.41" lon="-84.78">

    <name>KB8SCR 444.812500+ 107.2</name>
    <cmt>
      Fort Recovery KB8SCR OPEN    </cmt>
    <desc>
      Fort Recovery KB8SCR OPEN    </desc>
    <sym>Tall Tower</sym>
    <extensions>
      <gpxx:WaypointExtension>
        <gpxx:DisplayMode>SymbolAndName</gpxx:DisplayMode>
        <gpxx:Categories>
          <gpxx:Category>REPEATERS</gpxx:Category>
        </gpxx:Categories>
      </gpxx:WaypointExtension>
    </extensions>
  </wpt>
    <wpt lat="41.37" lon="-82.11">

    <name>K8KRG 444.800000+ 131.8</name>
    <cmt>
      Elyria K8KRG OPEN    </cmt>
    <desc>
      Elyria K8KRG OPEN    </desc>
    <sym>Tall Tower</sym>
    <extensions>
      <gpxx:WaypointExtension>
        <gpxx:DisplayMode>SymbolAndName</gpxx:DisplayMode>
        <gpxx:Categories>
          <gpxx:Category>REPEATERS</gpxx:Category>
        </gpxx:Categories>
      </gpxx:WaypointExtension>
    </extensions>
  </wpt>
    <wpt lat="39.96" lon="-83.00">

    <name>K8DDG 444.800000+ 94.8</name>
    <cmt>
      Columbus K8DDG OPEN    </cmt>
    <desc>
      Columbus K8DDG OPEN    </desc>
    <sym>Tall Tower</sym>
    <extensions>
      <gpxx:WaypointExtension>
        <gpxx:DisplayMode>SymbolAndName</gpxx:DisplayMode>
        <gpxx:Categories>
          <gpxx:Category>REPEATERS</gpxx:Category>
        </gpxx:Categories>
      </gpxx:WaypointExtension>
    </extensions>
  </wpt>
    <wpt lat="40.90048200" lon="-81.10557600">

    <name>W8NP 444.787500+ </name>
    <cmt>
      Alliance W8NP OPEN    </cmt>
    <desc>
      Alliance W8NP OPEN    </desc>
    <sym>Tall Tower</sym>
    <extensions>
      <gpxx:WaypointExtension>
        <gpxx:DisplayMode>SymbolAndName</gpxx:DisplayMode>
        <gpxx:Categories>
          <gpxx:Category>REPEATERS</gpxx:Category>
        </gpxx:Categories>
      </gpxx:WaypointExtension>
    </extensions>
  </wpt>
    <wpt lat="41.40" lon="-81.72">

    <name>WR8SS 444.775000+ 131.8</name>
    <cmt>
      Parma WR8SS CLOSED    </cmt>
    <desc>
      Parma WR8SS CLOSED    </desc>
    <sym>Tall Tower</sym>
    <extensions>
      <gpxx:WaypointExtension>
        <gpxx:DisplayMode>SymbolAndName</gpxx:DisplayMode>
        <gpxx:Categories>
          <gpxx:Category>REPEATERS</gpxx:Category>
        </gpxx:Categories>
      </gpxx:WaypointExtension>
    </extensions>
  </wpt>
    <wpt lat="40.74" lon="-84.11">

    <name>WB8PJZ 444.775000+ 118.8</name>
    <cmt>
      Lima WB8PJZ OPEN    </cmt>
    <desc>
      Lima WB8PJZ OPEN    </desc>
    <sym>Tall Tower</sym>
    <extensions>
      <gpxx:WaypointExtension>
        <gpxx:DisplayMode>SymbolAndName</gpxx:DisplayMode>
        <gpxx:Categories>
          <gpxx:Category>REPEATERS</gpxx:Category>
        </gpxx:Categories>
      </gpxx:WaypointExtension>
    </extensions>
  </wpt>
    <wpt lat="39.35" lon="-83.38">

    <name>K8HO 444.775000+ </name>
    <cmt>
      Greenfield, WVNU-FM Tower K8HO OPEN    </cmt>
    <desc>
      Greenfield, WVNU-FM Tower K8HO OPEN    </desc>
    <sym>Tall Tower</sym>
    <extensions>
      <gpxx:WaypointExtension>
        <gpxx:DisplayMode>SymbolAndName</gpxx:DisplayMode>
        <gpxx:Categories>
          <gpxx:Category>REPEATERS</gpxx:Category>
        </gpxx:Categories>
      </gpxx:WaypointExtension>
    </extensions>
  </wpt>
    <wpt lat="41.38" lon="-83.32">

    <name>K8KXA 444.762500+ 131.8</name>
    <cmt>
      Gibsonburg K8KXA OPEN    </cmt>
    <desc>
      Gibsonburg K8KXA OPEN    </desc>
    <sym>Tall Tower</sym>
    <extensions>
      <gpxx:WaypointExtension>
        <gpxx:DisplayMode>SymbolAndName</gpxx:DisplayMode>
        <gpxx:Categories>
          <gpxx:Category>REPEATERS</gpxx:Category>
        </gpxx:Categories>
      </gpxx:WaypointExtension>
    </extensions>
  </wpt>
    <wpt lat="39.05909979" lon="-84.26590836">

    <name>N8SIM 444.750000+ 123.0</name>
    <cmt>
      Withamsville N8SIM OPEN    </cmt>
    <desc>
      Withamsville N8SIM OPEN    </desc>
    <sym>Tall Tower</sym>
    <extensions>
      <gpxx:WaypointExtension>
        <gpxx:DisplayMode>SymbolAndName</gpxx:DisplayMode>
        <gpxx:Categories>
          <gpxx:Category>REPEATERS</gpxx:Category>
        </gpxx:Categories>
      </gpxx:WaypointExtension>
    </extensions>
  </wpt>
    <wpt lat="41.47" lon="-81.54">

    <name>K8ZFR 444.750000+ 131.8</name>
    <cmt>
      Shaker Heights K8ZFR OPEN    </cmt>
    <desc>
      Shaker Heights K8ZFR OPEN    </desc>
    <sym>Tall Tower</sym>
    <extensions>
      <gpxx:WaypointExtension>
        <gpxx:DisplayMode>SymbolAndName</gpxx:DisplayMode>
        <gpxx:Categories>
          <gpxx:Category>REPEATERS</gpxx:Category>
        </gpxx:Categories>
      </gpxx:WaypointExtension>
    </extensions>
  </wpt>
    <wpt lat="40.53370000" lon="-83.29340000">

    <name>N8HKO 444.750000+ 100.0</name>
    <cmt>
      La Rue, MT OLIVE CEMETERY N8HKO OPEN    </cmt>
    <desc>
      La Rue, MT OLIVE CEMETERY N8HKO OPEN    </desc>
    <sym>Tall Tower</sym>
    <extensions>
      <gpxx:WaypointExtension>
        <gpxx:DisplayMode>SymbolAndName</gpxx:DisplayMode>
        <gpxx:Categories>
          <gpxx:Category>REPEATERS</gpxx:Category>
        </gpxx:Categories>
      </gpxx:WaypointExtension>
    </extensions>
  </wpt>
    <wpt lat="41.61" lon="-81.45">

    <name>WA8PKB 444.725000+ </name>
    <cmt>
      Wickliffe WA8PKB OPEN    </cmt>
    <desc>
      Wickliffe WA8PKB OPEN    </desc>
    <sym>Tall Tower</sym>
    <extensions>
      <gpxx:WaypointExtension>
        <gpxx:DisplayMode>SymbolAndName</gpxx:DisplayMode>
        <gpxx:Categories>
          <gpxx:Category>REPEATERS</gpxx:Category>
        </gpxx:Categories>
      </gpxx:WaypointExtension>
    </extensions>
  </wpt>
    <wpt lat="40.14" lon="-84.24">

    <name>W8AK 444.725000+ 123.0</name>
    <cmt>
      Piqua W8AK OPEN    </cmt>
    <desc>
      Piqua W8AK OPEN    </desc>
    <sym>Tall Tower</sym>
    <extensions>
      <gpxx:WaypointExtension>
        <gpxx:DisplayMode>SymbolAndName</gpxx:DisplayMode>
        <gpxx:Categories>
          <gpxx:Category>REPEATERS</gpxx:Category>
        </gpxx:Categories>
      </gpxx:WaypointExtension>
    </extensions>
  </wpt>
    <wpt lat="41.56" lon="-83.65">

    <name>W8TER 444.700000+ 103.5</name>
    <cmt>
      Maumee W8TER OPEN    </cmt>
    <desc>
      Maumee W8TER OPEN    </desc>
    <sym>Tall Tower</sym>
    <extensions>
      <gpxx:WaypointExtension>
        <gpxx:DisplayMode>SymbolAndName</gpxx:DisplayMode>
        <gpxx:Categories>
          <gpxx:Category>REPEATERS</gpxx:Category>
        </gpxx:Categories>
      </gpxx:WaypointExtension>
    </extensions>
  </wpt>
    <wpt lat="40.76" lon="-82.52">

    <name>W8WE 444.700000+ 146.2</name>
    <cmt>
      Mansfield W8WE OPEN    </cmt>
    <desc>
      Mansfield W8WE OPEN    </desc>
    <sym>Tall Tower</sym>
    <extensions>
      <gpxx:WaypointExtension>
        <gpxx:DisplayMode>SymbolAndName</gpxx:DisplayMode>
        <gpxx:Categories>
          <gpxx:Category>REPEATERS</gpxx:Category>
        </gpxx:Categories>
      </gpxx:WaypointExtension>
    </extensions>
  </wpt>
    <wpt lat="40.90" lon="-80.86">

    <name>KA8OEB 444.675000+ 156.7</name>
    <cmt>
      Salem KA8OEB OPEN    </cmt>
    <desc>
      Salem KA8OEB OPEN    </desc>
    <sym>Tall Tower</sym>
    <extensions>
      <gpxx:WaypointExtension>
        <gpxx:DisplayMode>SymbolAndName</gpxx:DisplayMode>
        <gpxx:Categories>
          <gpxx:Category>REPEATERS</gpxx:Category>
        </gpxx:Categories>
      </gpxx:WaypointExtension>
    </extensions>
  </wpt>
    <wpt lat="39.20" lon="-83.61">

    <name>K8HO 444.675000+ </name>
    <cmt>
      Hillsboro, Rocky Fork State Park K8HO OPEN    </cmt>
    <desc>
      Hillsboro, Rocky Fork State Park K8HO OPEN    </desc>
    <sym>Tall Tower</sym>
    <extensions>
      <gpxx:WaypointExtension>
        <gpxx:DisplayMode>SymbolAndName</gpxx:DisplayMode>
        <gpxx:Categories>
          <gpxx:Category>REPEATERS</gpxx:Category>
        </gpxx:Categories>
      </gpxx:WaypointExtension>
    </extensions>
  </wpt>
    <wpt lat="41.17" lon="-82.22">

    <name>K8TV 444.662500+ 91.5</name>
    <cmt>
      Wellington K8TV OPEN    </cmt>
    <desc>
      Wellington K8TV OPEN    </desc>
    <sym>Tall Tower</sym>
    <extensions>
      <gpxx:WaypointExtension>
        <gpxx:DisplayMode>SymbolAndName</gpxx:DisplayMode>
        <gpxx:Categories>
          <gpxx:Category>REPEATERS</gpxx:Category>
        </gpxx:Categories>
      </gpxx:WaypointExtension>
    </extensions>
  </wpt>
    <wpt lat="39.69" lon="-84.17">

    <name>W8GUC 444.662500+ 123.0</name>
    <cmt>
      Kettering W8GUC OPEN    </cmt>
    <desc>
      Kettering W8GUC OPEN    </desc>
    <sym>Tall Tower</sym>
    <extensions>
      <gpxx:WaypointExtension>
        <gpxx:DisplayMode>SymbolAndName</gpxx:DisplayMode>
        <gpxx:Categories>
          <gpxx:Category>REPEATERS</gpxx:Category>
        </gpxx:Categories>
      </gpxx:WaypointExtension>
    </extensions>
  </wpt>
    <wpt lat="41.62" lon="-83.59">

    <name>KB8YVY 444.650000+ 103.5</name>
    <cmt>
      Toledo KB8YVY OPEN    </cmt>
    <desc>
      Toledo KB8YVY OPEN    </desc>
    <sym>Tall Tower</sym>
    <extensions>
      <gpxx:WaypointExtension>
        <gpxx:DisplayMode>SymbolAndName</gpxx:DisplayMode>
        <gpxx:Categories>
          <gpxx:Category>REPEATERS</gpxx:Category>
        </gpxx:Categories>
      </gpxx:WaypointExtension>
    </extensions>
  </wpt>
    <wpt lat="39.84" lon="-82.55">

    <name>KB8TRL 444.650000+ 179.9</name>
    <cmt>
      Thurston KB8TRL OPEN    </cmt>
    <desc>
      Thurston KB8TRL OPEN    </desc>
    <sym>Tall Tower</sym>
    <extensions>
      <gpxx:WaypointExtension>
        <gpxx:DisplayMode>SymbolAndName</gpxx:DisplayMode>
        <gpxx:Categories>
          <gpxx:Category>REPEATERS</gpxx:Category>
        </gpxx:Categories>
      </gpxx:WaypointExtension>
    </extensions>
  </wpt>
    <wpt lat="41.66289902" lon="-81.24729919">

    <name>N8BC 444.650000+ 131.8</name>
    <cmt>
      Mentor, Tri-Point Hospital N8BC OPEN    </cmt>
    <desc>
      Mentor, Tri-Point Hospital N8BC OPEN    </desc>
    <sym>Tall Tower</sym>
    <extensions>
      <gpxx:WaypointExtension>
        <gpxx:DisplayMode>SymbolAndName</gpxx:DisplayMode>
        <gpxx:Categories>
          <gpxx:Category>REPEATERS</gpxx:Category>
        </gpxx:Categories>
      </gpxx:WaypointExtension>
    </extensions>
  </wpt>
    <wpt lat="39.40" lon="-84.56">

    <name>K8KY 444.650000+ 123.0</name>
    <cmt>
      Hamilton K8KY OPEN    </cmt>
    <desc>
      Hamilton K8KY OPEN    </desc>
    <sym>Tall Tower</sym>
    <extensions>
      <gpxx:WaypointExtension>
        <gpxx:DisplayMode>SymbolAndName</gpxx:DisplayMode>
        <gpxx:Categories>
          <gpxx:Category>REPEATERS</gpxx:Category>
        </gpxx:Categories>
      </gpxx:WaypointExtension>
    </extensions>
  </wpt>
    <wpt lat="41.26" lon="-81.81">

    <name>W8WIN 444.650000+ 131.8</name>
    <cmt>
      Brunswick W8WIN OPEN    </cmt>
    <desc>
      Brunswick W8WIN OPEN    </desc>
    <sym>Tall Tower</sym>
    <extensions>
      <gpxx:WaypointExtension>
        <gpxx:DisplayMode>SymbolAndName</gpxx:DisplayMode>
        <gpxx:Categories>
          <gpxx:Category>REPEATERS</gpxx:Category>
        </gpxx:Categories>
      </gpxx:WaypointExtension>
    </extensions>
  </wpt>
    <wpt lat="41.45" lon="-81.27">

    <name>WB8QGR 444.625000+ </name>
    <cmt>
      Newbury WB8QGR OPEN    </cmt>
    <desc>
      Newbury WB8QGR OPEN    </desc>
    <sym>Tall Tower</sym>
    <extensions>
      <gpxx:WaypointExtension>
        <gpxx:DisplayMode>SymbolAndName</gpxx:DisplayMode>
        <gpxx:Categories>
          <gpxx:Category>REPEATERS</gpxx:Category>
        </gpxx:Categories>
      </gpxx:WaypointExtension>
    </extensions>
  </wpt>
    <wpt lat="38.53419876" lon="-82.68530273">

    <name>W8SOE 444.625000+ 103.5</name>
    <cmt>
      Ironton W8SOE OPEN    </cmt>
    <desc>
      Ironton W8SOE OPEN    </desc>
    <sym>Tall Tower</sym>
    <extensions>
      <gpxx:WaypointExtension>
        <gpxx:DisplayMode>SymbolAndName</gpxx:DisplayMode>
        <gpxx:Categories>
          <gpxx:Category>REPEATERS</gpxx:Category>
        </gpxx:Categories>
      </gpxx:WaypointExtension>
    </extensions>
  </wpt>
    <wpt lat="40.41" lon="-82.95">

    <name>KC8BVF 444.625000+ </name>
    <cmt>
      Ashley KC8BVF OPEN    </cmt>
    <desc>
      Ashley KC8BVF OPEN    </desc>
    <sym>Tall Tower</sym>
    <extensions>
      <gpxx:WaypointExtension>
        <gpxx:DisplayMode>SymbolAndName</gpxx:DisplayMode>
        <gpxx:Categories>
          <gpxx:Category>REPEATERS</gpxx:Category>
        </gpxx:Categories>
      </gpxx:WaypointExtension>
    </extensions>
  </wpt>
    <wpt lat="39.54" lon="-83.44">

    <name>N8EMZ 444.612500+ </name>
    <cmt>
      Washington, Courthouse N8EMZ OPEN    </cmt>
    <desc>
      Washington, Courthouse N8EMZ OPEN    </desc>
    <sym>Tall Tower</sym>
    <extensions>
      <gpxx:WaypointExtension>
        <gpxx:DisplayMode>SymbolAndName</gpxx:DisplayMode>
        <gpxx:Categories>
          <gpxx:Category>REPEATERS</gpxx:Category>
        </gpxx:Categories>
      </gpxx:WaypointExtension>
    </extensions>
  </wpt>
    <wpt lat="40.41018100" lon="-82.47487200">

    <name>K8EEN 444.600000+ 71.9</name>
    <cmt>
      Mount Vernon K8EEN OPEN    </cmt>
    <desc>
      Mount Vernon K8EEN OPEN    </desc>
    <sym>Tall Tower</sym>
    <extensions>
      <gpxx:WaypointExtension>
        <gpxx:DisplayMode>SymbolAndName</gpxx:DisplayMode>
        <gpxx:Categories>
          <gpxx:Category>REPEATERS</gpxx:Category>
        </gpxx:Categories>
      </gpxx:WaypointExtension>
    </extensions>
  </wpt>
    <wpt lat="41.52" lon="-81.34">

    <name>K9IC 444.600000+ 131.8</name>
    <cmt>
      Chesterland K9IC OPEN    </cmt>
    <desc>
      Chesterland K9IC OPEN    </desc>
    <sym>Tall Tower</sym>
    <extensions>
      <gpxx:WaypointExtension>
        <gpxx:DisplayMode>SymbolAndName</gpxx:DisplayMode>
        <gpxx:Categories>
          <gpxx:Category>REPEATERS</gpxx:Category>
        </gpxx:Categories>
      </gpxx:WaypointExtension>
    </extensions>
  </wpt>
    <wpt lat="39.63" lon="-84.16">

    <name>WB8SCT 444.600000+ </name>
    <cmt>
      Centerville WB8SCT OPEN    </cmt>
    <desc>
      Centerville WB8SCT OPEN    </desc>
    <sym>Tall Tower</sym>
    <extensions>
      <gpxx:WaypointExtension>
        <gpxx:DisplayMode>SymbolAndName</gpxx:DisplayMode>
        <gpxx:Categories>
          <gpxx:Category>REPEATERS</gpxx:Category>
        </gpxx:Categories>
      </gpxx:WaypointExtension>
    </extensions>
  </wpt>
    <wpt lat="39.45" lon="-83.83">

    <name>WB8ZZR 444.575000+ 141.3</name>
    <cmt>
      Wilmington WB8ZZR OPEN    </cmt>
    <desc>
      Wilmington WB8ZZR OPEN    </desc>
    <sym>Tall Tower</sym>
    <extensions>
      <gpxx:WaypointExtension>
        <gpxx:DisplayMode>SymbolAndName</gpxx:DisplayMode>
        <gpxx:Categories>
          <gpxx:Category>REPEATERS</gpxx:Category>
        </gpxx:Categories>
      </gpxx:WaypointExtension>
    </extensions>
  </wpt>
    <wpt lat="41.28820000" lon="-81.20210000">

    <name>K8IV 444.575000+ </name>
    <cmt>
      Mantua K8IV OPEN    </cmt>
    <desc>
      Mantua K8IV OPEN    </desc>
    <sym>Tall Tower</sym>
    <extensions>
      <gpxx:WaypointExtension>
        <gpxx:DisplayMode>SymbolAndName</gpxx:DisplayMode>
        <gpxx:Categories>
          <gpxx:Category>REPEATERS</gpxx:Category>
        </gpxx:Categories>
      </gpxx:WaypointExtension>
    </extensions>
  </wpt>
    <wpt lat="39.96" lon="-84.33">

    <name>N8EIO 444.562500+ </name>
    <cmt>
      West Milton N8EIO OPEN    </cmt>
    <desc>
      West Milton N8EIO OPEN    </desc>
    <sym>Tall Tower</sym>
    <extensions>
      <gpxx:WaypointExtension>
        <gpxx:DisplayMode>SymbolAndName</gpxx:DisplayMode>
        <gpxx:Categories>
          <gpxx:Category>REPEATERS</gpxx:Category>
        </gpxx:Categories>
      </gpxx:WaypointExtension>
    </extensions>
  </wpt>
    <wpt lat="41.58" lon="-81.21">

    <name>W8QT 444.562500+ 131.8</name>
    <cmt>
      Thompson W8QT OPEN    </cmt>
    <desc>
      Thompson W8QT OPEN    </desc>
    <sym>Tall Tower</sym>
    <extensions>
      <gpxx:WaypointExtension>
        <gpxx:DisplayMode>SymbolAndName</gpxx:DisplayMode>
        <gpxx:Categories>
          <gpxx:Category>REPEATERS</gpxx:Category>
        </gpxx:Categories>
      </gpxx:WaypointExtension>
    </extensions>
  </wpt>
    <wpt lat="39.96026471" lon="-82.99772319">

    <name>N8PVC 444.550000+ 123.0</name>
    <cmt>
      Columbus N8PVC OPEN    </cmt>
    <desc>
      Columbus N8PVC OPEN    </desc>
    <sym>Tall Tower</sym>
    <extensions>
      <gpxx:WaypointExtension>
        <gpxx:DisplayMode>SymbolAndName</gpxx:DisplayMode>
        <gpxx:Categories>
          <gpxx:Category>REPEATERS</gpxx:Category>
        </gpxx:Categories>
      </gpxx:WaypointExtension>
    </extensions>
  </wpt>
    <wpt lat="39.96" lon="-84.17">

    <name>N8RVS 444.537500+ </name>
    <cmt>
      Tipp City N8RVS OPEN    </cmt>
    <desc>
      Tipp City N8RVS OPEN    </desc>
    <sym>Tall Tower</sym>
    <extensions>
      <gpxx:WaypointExtension>
        <gpxx:DisplayMode>SymbolAndName</gpxx:DisplayMode>
        <gpxx:Categories>
          <gpxx:Category>REPEATERS</gpxx:Category>
        </gpxx:Categories>
      </gpxx:WaypointExtension>
    </extensions>
  </wpt>
    <wpt lat="39.27" lon="-84.26">

    <name>WU8S 444.525000+ 100.0</name>
    <cmt>
      Loveland WU8S OPEN    </cmt>
    <desc>
      Loveland WU8S OPEN    </desc>
    <sym>Tall Tower</sym>
    <extensions>
      <gpxx:WaypointExtension>
        <gpxx:DisplayMode>SymbolAndName</gpxx:DisplayMode>
        <gpxx:Categories>
          <gpxx:Category>REPEATERS</gpxx:Category>
        </gpxx:Categories>
      </gpxx:WaypointExtension>
    </extensions>
  </wpt>
    <wpt lat="39.67" lon="-84.25">

    <name>K8ZQ 444.500000+ </name>
    <cmt>
      West Carrollton K8ZQ OPEN    </cmt>
    <desc>
      West Carrollton K8ZQ OPEN    </desc>
    <sym>Tall Tower</sym>
    <extensions>
      <gpxx:WaypointExtension>
        <gpxx:DisplayMode>SymbolAndName</gpxx:DisplayMode>
        <gpxx:Categories>
          <gpxx:Category>REPEATERS</gpxx:Category>
        </gpxx:Categories>
      </gpxx:WaypointExtension>
    </extensions>
  </wpt>
    <wpt lat="41.40779900" lon="-82.04444900">

    <name>K8WSL 444.500000+ </name>
    <cmt>
      North Ridgeville K8WSL OPEN    </cmt>
    <desc>
      North Ridgeville K8WSL OPEN    </desc>
    <sym>Tall Tower</sym>
    <extensions>
      <gpxx:WaypointExtension>
        <gpxx:DisplayMode>SymbolAndName</gpxx:DisplayMode>
        <gpxx:Categories>
          <gpxx:Category>REPEATERS</gpxx:Category>
        </gpxx:Categories>
      </gpxx:WaypointExtension>
    </extensions>
  </wpt>
    <wpt lat="40.06" lon="-82.40">

    <name>N8ARA 444.500000+ 141.3</name>
    <cmt>
      Newark, Horns Hill N8ARA OPEN    </cmt>
    <desc>
      Newark, Horns Hill N8ARA OPEN    </desc>
    <sym>Tall Tower</sym>
    <extensions>
      <gpxx:WaypointExtension>
        <gpxx:DisplayMode>SymbolAndName</gpxx:DisplayMode>
        <gpxx:Categories>
          <gpxx:Category>REPEATERS</gpxx:Category>
        </gpxx:Categories>
      </gpxx:WaypointExtension>
    </extensions>
  </wpt>
    <wpt lat="41.05" lon="-81.40">

    <name>KC8MXW 444.487500+ </name>
    <cmt>
      Mogadore KC8MXW OPEN    </cmt>
    <desc>
      Mogadore KC8MXW OPEN    </desc>
    <sym>Tall Tower</sym>
    <extensions>
      <gpxx:WaypointExtension>
        <gpxx:DisplayMode>SymbolAndName</gpxx:DisplayMode>
        <gpxx:Categories>
          <gpxx:Category>REPEATERS</gpxx:Category>
        </gpxx:Categories>
      </gpxx:WaypointExtension>
    </extensions>
  </wpt>
    <wpt lat="39.52" lon="-84.40">

    <name>AG8Y 444.475000+ 100.0</name>
    <cmt>
      Middletown AG8Y OPEN    </cmt>
    <desc>
      Middletown AG8Y OPEN    </desc>
    <sym>Tall Tower</sym>
    <extensions>
      <gpxx:WaypointExtension>
        <gpxx:DisplayMode>SymbolAndName</gpxx:DisplayMode>
        <gpxx:Categories>
          <gpxx:Category>REPEATERS</gpxx:Category>
        </gpxx:Categories>
      </gpxx:WaypointExtension>
    </extensions>
  </wpt>
    <wpt lat="41.70" lon="-81.27">

    <name>N1TVI 444.475000+ 131.8</name>
    <cmt>
      Mentor, Lake County Fairgrounds N1TVI OPEN    </cmt>
    <desc>
      Mentor, Lake County Fairgrounds N1TVI OPEN    </desc>
    <sym>Tall Tower</sym>
    <extensions>
      <gpxx:WaypointExtension>
        <gpxx:DisplayMode>SymbolAndName</gpxx:DisplayMode>
        <gpxx:Categories>
          <gpxx:Category>REPEATERS</gpxx:Category>
        </gpxx:Categories>
      </gpxx:WaypointExtension>
    </extensions>
  </wpt>
    <wpt lat="41.37" lon="-83.65">

    <name>K8TIH 444.475000+ 67.0</name>
    <cmt>
      Bowling Green K8TIH OPEN    </cmt>
    <desc>
      Bowling Green K8TIH OPEN    </desc>
    <sym>Tall Tower</sym>
    <extensions>
      <gpxx:WaypointExtension>
        <gpxx:DisplayMode>SymbolAndName</gpxx:DisplayMode>
        <gpxx:Categories>
          <gpxx:Category>REPEATERS</gpxx:Category>
        </gpxx:Categories>
      </gpxx:WaypointExtension>
    </extensions>
  </wpt>
    <wpt lat="40.15" lon="-84.24">

    <name>N8BCM 444.462500+ 127.3</name>
    <cmt>
      Piqua N8BCM OPEN    </cmt>
    <desc>
      Piqua N8BCM OPEN    </desc>
    <sym>Tall Tower</sym>
    <extensions>
      <gpxx:WaypointExtension>
        <gpxx:DisplayMode>SymbolAndName</gpxx:DisplayMode>
        <gpxx:Categories>
          <gpxx:Category>REPEATERS</gpxx:Category>
        </gpxx:Categories>
      </gpxx:WaypointExtension>
    </extensions>
  </wpt>
    <wpt lat="41.57" lon="-84.01">

    <name>K8LI 444.450000+ 103.5</name>
    <cmt>
      Delta K8LI OPEN    </cmt>
    <desc>
      Delta K8LI OPEN    </desc>
    <sym>Tall Tower</sym>
    <extensions>
      <gpxx:WaypointExtension>
        <gpxx:DisplayMode>SymbolAndName</gpxx:DisplayMode>
        <gpxx:Categories>
          <gpxx:Category>REPEATERS</gpxx:Category>
        </gpxx:Categories>
      </gpxx:WaypointExtension>
    </extensions>
  </wpt>
    <wpt lat="41.12200165" lon="-83.01570129">

    <name>KC8RCI 444.437500+ 107.2</name>
    <cmt>
      Republic KC8RCI OPEN    </cmt>
    <desc>
      Republic KC8RCI OPEN    </desc>
    <sym>Tall Tower</sym>
    <extensions>
      <gpxx:WaypointExtension>
        <gpxx:DisplayMode>SymbolAndName</gpxx:DisplayMode>
        <gpxx:Categories>
          <gpxx:Category>REPEATERS</gpxx:Category>
        </gpxx:Categories>
      </gpxx:WaypointExtension>
    </extensions>
  </wpt>
    <wpt lat="39.72" lon="-84.25">

    <name>N8NQH 444.437500+ </name>
    <cmt>
      Dayton N8NQH OPEN    </cmt>
    <desc>
      Dayton N8NQH OPEN    </desc>
    <sym>Tall Tower</sym>
    <extensions>
      <gpxx:WaypointExtension>
        <gpxx:DisplayMode>SymbolAndName</gpxx:DisplayMode>
        <gpxx:Categories>
          <gpxx:Category>REPEATERS</gpxx:Category>
        </gpxx:Categories>
      </gpxx:WaypointExtension>
    </extensions>
  </wpt>
    <wpt lat="39.58" lon="-81.86">

    <name>KE8ANE 444.400000+ 110.9</name>
    <cmt>
      Pennsville KE8ANE OPEN    </cmt>
    <desc>
      Pennsville KE8ANE OPEN    </desc>
    <sym>Tall Tower</sym>
    <extensions>
      <gpxx:WaypointExtension>
        <gpxx:DisplayMode>SymbolAndName</gpxx:DisplayMode>
        <gpxx:Categories>
          <gpxx:Category>REPEATERS</gpxx:Category>
        </gpxx:Categories>
      </gpxx:WaypointExtension>
    </extensions>
  </wpt>
    <wpt lat="41.45" lon="-82.71">

    <name>W8LBZ 444.375000+ 110.9</name>
    <cmt>
      Sandusky, SREL Clubhouse W8LBZ OPEN    </cmt>
    <desc>
      Sandusky, SREL Clubhouse W8LBZ OPEN    </desc>
    <sym>Tall Tower</sym>
    <extensions>
      <gpxx:WaypointExtension>
        <gpxx:DisplayMode>SymbolAndName</gpxx:DisplayMode>
        <gpxx:Categories>
          <gpxx:Category>REPEATERS</gpxx:Category>
        </gpxx:Categories>
      </gpxx:WaypointExtension>
    </extensions>
  </wpt>
    <wpt lat="40.03" lon="-81.59">

    <name>KB8ZMI 444.375000+ 91.5</name>
    <cmt>
      Cambridge KB8ZMI OPEN    </cmt>
    <desc>
      Cambridge KB8ZMI OPEN    </desc>
    <sym>Tall Tower</sym>
    <extensions>
      <gpxx:WaypointExtension>
        <gpxx:DisplayMode>SymbolAndName</gpxx:DisplayMode>
        <gpxx:Categories>
          <gpxx:Category>REPEATERS</gpxx:Category>
        </gpxx:Categories>
      </gpxx:WaypointExtension>
    </extensions>
  </wpt>
    <wpt lat="39.52" lon="-84.40">

    <name>W8BLV 444.362500+ </name>
    <cmt>
      Middletown W8BLV OPEN    </cmt>
    <desc>
      Middletown W8BLV OPEN    </desc>
    <sym>Tall Tower</sym>
    <extensions>
      <gpxx:WaypointExtension>
        <gpxx:DisplayMode>SymbolAndName</gpxx:DisplayMode>
        <gpxx:Categories>
          <gpxx:Category>REPEATERS</gpxx:Category>
        </gpxx:Categories>
      </gpxx:WaypointExtension>
    </extensions>
  </wpt>
    <wpt lat="40.69588700" lon="-82.53693600">

    <name>KE8ZKW 444.350000+ 91.5</name>
    <cmt>
      Lexington KE8ZKW OPEN    </cmt>
    <desc>
      Lexington KE8ZKW OPEN    </desc>
    <sym>Tall Tower</sym>
    <extensions>
      <gpxx:WaypointExtension>
        <gpxx:DisplayMode>SymbolAndName</gpxx:DisplayMode>
        <gpxx:Categories>
          <gpxx:Category>REPEATERS</gpxx:Category>
        </gpxx:Categories>
      </gpxx:WaypointExtension>
    </extensions>
  </wpt>
    <wpt lat="41.58" lon="-81.21">

    <name> 444.337500+ </name>
    <cmt>
      Chardon  OPEN    </cmt>
    <desc>
      Chardon  OPEN    </desc>
    <sym>Tall Tower</sym>
    <extensions>
      <gpxx:WaypointExtension>
        <gpxx:DisplayMode>SymbolAndName</gpxx:DisplayMode>
        <gpxx:Categories>
          <gpxx:Category>REPEATERS</gpxx:Category>
        </gpxx:Categories>
      </gpxx:WaypointExtension>
    </extensions>
  </wpt>
    <wpt lat="41.47" lon="-81.35">

    <name>N8QBB 444.325000+ 131.8</name>
    <cmt>
      Russell N8QBB OPEN    </cmt>
    <desc>
      Russell N8QBB OPEN    </desc>
    <sym>Tall Tower</sym>
    <extensions>
      <gpxx:WaypointExtension>
        <gpxx:DisplayMode>SymbolAndName</gpxx:DisplayMode>
        <gpxx:Categories>
          <gpxx:Category>REPEATERS</gpxx:Category>
        </gpxx:Categories>
      </gpxx:WaypointExtension>
    </extensions>
  </wpt>
    <wpt lat="39.82" lon="-84.02">

    <name>KI6SZ 444.312500+ </name>
    <cmt>
      Fairborn KI6SZ CLOSED    </cmt>
    <desc>
      Fairborn KI6SZ CLOSED    </desc>
    <sym>Tall Tower</sym>
    <extensions>
      <gpxx:WaypointExtension>
        <gpxx:DisplayMode>SymbolAndName</gpxx:DisplayMode>
        <gpxx:Categories>
          <gpxx:Category>REPEATERS</gpxx:Category>
        </gpxx:Categories>
      </gpxx:WaypointExtension>
    </extensions>
  </wpt>
    <wpt lat="41.45" lon="-82.18">

    <name>KB8O 444.312500+ 131.8</name>
    <cmt>
      Elyria KB8O OPEN    </cmt>
    <desc>
      Elyria KB8O OPEN    </desc>
    <sym>Tall Tower</sym>
    <extensions>
      <gpxx:WaypointExtension>
        <gpxx:DisplayMode>SymbolAndName</gpxx:DisplayMode>
        <gpxx:Categories>
          <gpxx:Category>REPEATERS</gpxx:Category>
        </gpxx:Categories>
      </gpxx:WaypointExtension>
    </extensions>
  </wpt>
    <wpt lat="41.15" lon="-81.36">

    <name>N8BHU 444.300000+ 131.8</name>
    <cmt>
      Kent N8BHU OPEN    </cmt>
    <desc>
      Kent N8BHU OPEN    </desc>
    <sym>Tall Tower</sym>
    <extensions>
      <gpxx:WaypointExtension>
        <gpxx:DisplayMode>SymbolAndName</gpxx:DisplayMode>
        <gpxx:Categories>
          <gpxx:Category>REPEATERS</gpxx:Category>
        </gpxx:Categories>
      </gpxx:WaypointExtension>
    </extensions>
  </wpt>
    <wpt lat="40.92" lon="-84.06">

    <name>K8TEK 444.300000+ </name>
    <cmt>
      Columbus Grove K8TEK OPEN    </cmt>
    <desc>
      Columbus Grove K8TEK OPEN    </desc>
    <sym>Tall Tower</sym>
    <extensions>
      <gpxx:WaypointExtension>
        <gpxx:DisplayMode>SymbolAndName</gpxx:DisplayMode>
        <gpxx:Categories>
          <gpxx:Category>REPEATERS</gpxx:Category>
        </gpxx:Categories>
      </gpxx:WaypointExtension>
    </extensions>
  </wpt>
    <wpt lat="39.10" lon="-84.51">

    <name>N8TVU 444.300000+ 118.8</name>
    <cmt>
      Cincinnati N8TVU OPEN    </cmt>
    <desc>
      Cincinnati N8TVU OPEN    </desc>
    <sym>Tall Tower</sym>
    <extensions>
      <gpxx:WaypointExtension>
        <gpxx:DisplayMode>SymbolAndName</gpxx:DisplayMode>
        <gpxx:Categories>
          <gpxx:Category>REPEATERS</gpxx:Category>
        </gpxx:Categories>
      </gpxx:WaypointExtension>
    </extensions>
  </wpt>
    <wpt lat="41.02" lon="-81.16">

    <name>W8FAA 444.300000+ </name>
    <cmt>
      Atwater W8FAA OPEN    </cmt>
    <desc>
      Atwater W8FAA OPEN    </desc>
    <sym>Tall Tower</sym>
    <extensions>
      <gpxx:WaypointExtension>
        <gpxx:DisplayMode>SymbolAndName</gpxx:DisplayMode>
        <gpxx:Categories>
          <gpxx:Category>REPEATERS</gpxx:Category>
        </gpxx:Categories>
      </gpxx:WaypointExtension>
    </extensions>
  </wpt>
    <wpt lat="41.54" lon="-80.71">

    <name>N1TVI 444.287500+ 131.8</name>
    <cmt>
      Wayne N1TVI OPEN    </cmt>
    <desc>
      Wayne N1TVI OPEN    </desc>
    <sym>Tall Tower</sym>
    <extensions>
      <gpxx:WaypointExtension>
        <gpxx:DisplayMode>SymbolAndName</gpxx:DisplayMode>
        <gpxx:Categories>
          <gpxx:Category>REPEATERS</gpxx:Category>
        </gpxx:Categories>
      </gpxx:WaypointExtension>
    </extensions>
  </wpt>
    <wpt lat="41.62" lon="-83.71">

    <name>W8AK 444.275000+ 107.2</name>
    <cmt>
      Holland W8AK OPEN    </cmt>
    <desc>
      Holland W8AK OPEN    </desc>
    <sym>Tall Tower</sym>
    <extensions>
      <gpxx:WaypointExtension>
        <gpxx:DisplayMode>SymbolAndName</gpxx:DisplayMode>
        <gpxx:Categories>
          <gpxx:Category>REPEATERS</gpxx:Category>
        </gpxx:Categories>
      </gpxx:WaypointExtension>
    </extensions>
  </wpt>
    <wpt lat="39.96" lon="-83.00">

    <name>K8DDG 444.275000+ 94.8</name>
    <cmt>
      Columbus K8DDG OPEN    </cmt>
    <desc>
      Columbus K8DDG OPEN    </desc>
    <sym>Tall Tower</sym>
    <extensions>
      <gpxx:WaypointExtension>
        <gpxx:DisplayMode>SymbolAndName</gpxx:DisplayMode>
        <gpxx:Categories>
          <gpxx:Category>REPEATERS</gpxx:Category>
        </gpxx:Categories>
      </gpxx:WaypointExtension>
    </extensions>
  </wpt>
    <wpt lat="41.50" lon="-81.70">

    <name>N8OND 444.275000+ 131.8</name>
    <cmt>
      Cleveland N8OND CLOSED    </cmt>
    <desc>
      Cleveland N8OND CLOSED    </desc>
    <sym>Tall Tower</sym>
    <extensions>
      <gpxx:WaypointExtension>
        <gpxx:DisplayMode>SymbolAndName</gpxx:DisplayMode>
        <gpxx:Categories>
          <gpxx:Category>REPEATERS</gpxx:Category>
        </gpxx:Categories>
      </gpxx:WaypointExtension>
    </extensions>
  </wpt>
    <wpt lat="40.81" lon="-81.94">

    <name>KD8EU 444.250000+ 131.8</name>
    <cmt>
      Wooster KD8EU OPEN    </cmt>
    <desc>
      Wooster KD8EU OPEN    </desc>
    <sym>Tall Tower</sym>
    <extensions>
      <gpxx:WaypointExtension>
        <gpxx:DisplayMode>SymbolAndName</gpxx:DisplayMode>
        <gpxx:Categories>
          <gpxx:Category>REPEATERS</gpxx:Category>
        </gpxx:Categories>
      </gpxx:WaypointExtension>
    </extensions>
  </wpt>
    <wpt lat="41.53509903" lon="-80.86810303">

    <name>KF8YF 444.250000+ </name>
    <cmt>
      Orwell KF8YF OPEN    </cmt>
    <desc>
      Orwell KF8YF OPEN    </desc>
    <sym>Tall Tower</sym>
    <extensions>
      <gpxx:WaypointExtension>
        <gpxx:DisplayMode>SymbolAndName</gpxx:DisplayMode>
        <gpxx:Categories>
          <gpxx:Category>REPEATERS</gpxx:Category>
        </gpxx:Categories>
      </gpxx:WaypointExtension>
    </extensions>
  </wpt>
    <wpt lat="39.76" lon="-84.19">

    <name>K8MCA 444.250000+ 123.0</name>
    <cmt>
      Dayton K8MCA OPEN    </cmt>
    <desc>
      Dayton K8MCA OPEN    </desc>
    <sym>Tall Tower</sym>
    <extensions>
      <gpxx:WaypointExtension>
        <gpxx:DisplayMode>SymbolAndName</gpxx:DisplayMode>
        <gpxx:Categories>
          <gpxx:Category>REPEATERS</gpxx:Category>
        </gpxx:Categories>
      </gpxx:WaypointExtension>
    </extensions>
  </wpt>
    <wpt lat="39.13966611" lon="-84.52237510">

    <name>W8ESS 444.225000+ 123.0</name>
    <cmt>
      Cincinnati W8ESS OPEN    </cmt>
    <desc>
      Cincinnati W8ESS OPEN    </desc>
    <sym>Tall Tower</sym>
    <extensions>
      <gpxx:WaypointExtension>
        <gpxx:DisplayMode>SymbolAndName</gpxx:DisplayMode>
        <gpxx:Categories>
          <gpxx:Category>REPEATERS</gpxx:Category>
        </gpxx:Categories>
      </gpxx:WaypointExtension>
    </extensions>
  </wpt>
    <wpt lat="41.41519928" lon="-81.36889648">

    <name>W8QT 444.225000+ 131.8</name>
    <cmt>
      Chagrin Falls W8QT OPEN    </cmt>
    <desc>
      Chagrin Falls W8QT OPEN    </desc>
    <sym>Tall Tower</sym>
    <extensions>
      <gpxx:WaypointExtension>
        <gpxx:DisplayMode>SymbolAndName</gpxx:DisplayMode>
        <gpxx:Categories>
          <gpxx:Category>REPEATERS</gpxx:Category>
        </gpxx:Categories>
      </gpxx:WaypointExtension>
    </extensions>
  </wpt>
    <wpt lat="39.44" lon="-84.11">

    <name>K8MCA 444.212500+ 123.0</name>
    <cmt>
      Dayton, Miami Valley Hospital K8MCA OPEN    </cmt>
    <desc>
      Dayton, Miami Valley Hospital K8MCA OPEN    </desc>
    <sym>Tall Tower</sym>
    <extensions>
      <gpxx:WaypointExtension>
        <gpxx:DisplayMode>SymbolAndName</gpxx:DisplayMode>
        <gpxx:Categories>
          <gpxx:Category>REPEATERS</gpxx:Category>
        </gpxx:Categories>
      </gpxx:WaypointExtension>
    </extensions>
  </wpt>
    <wpt lat="39.96" lon="-83.00">

    <name>W8AIC 444.200000+ 151.4</name>
    <cmt>
      Columbus W8AIC OPEN    </cmt>
    <desc>
      Columbus W8AIC OPEN    </desc>
    <sym>Tall Tower</sym>
    <extensions>
      <gpxx:WaypointExtension>
        <gpxx:DisplayMode>SymbolAndName</gpxx:DisplayMode>
        <gpxx:Categories>
          <gpxx:Category>REPEATERS</gpxx:Category>
        </gpxx:Categories>
      </gpxx:WaypointExtension>
    </extensions>
  </wpt>
    <wpt lat="41.07" lon="-81.55">

    <name>N8XPK 444.200000+ 131.8</name>
    <cmt>
      Akron, Spring Hill Apts N8XPK OPEN    </cmt>
    <desc>
      Akron, Spring Hill Apts N8XPK OPEN    </desc>
    <sym>Tall Tower</sym>
    <extensions>
      <gpxx:WaypointExtension>
        <gpxx:DisplayMode>SymbolAndName</gpxx:DisplayMode>
        <gpxx:Categories>
          <gpxx:Category>REPEATERS</gpxx:Category>
        </gpxx:Categories>
      </gpxx:WaypointExtension>
    </extensions>
  </wpt>
    <wpt lat="39.46279907" lon="-84.14489746">

    <name>WC8EMA 444.187500+ 118.8</name>
    <cmt>
      Lebanon WC8EMA OPEN    </cmt>
    <desc>
      Lebanon WC8EMA OPEN    </desc>
    <sym>Tall Tower</sym>
    <extensions>
      <gpxx:WaypointExtension>
        <gpxx:DisplayMode>SymbolAndName</gpxx:DisplayMode>
        <gpxx:Categories>
          <gpxx:Category>REPEATERS</gpxx:Category>
        </gpxx:Categories>
      </gpxx:WaypointExtension>
    </extensions>
  </wpt>
    <wpt lat="40.10" lon="-84.63">

    <name>N8OBE 444.175000+ </name>
    <cmt>
      Greenville N8OBE OPEN    </cmt>
    <desc>
      Greenville N8OBE OPEN    </desc>
    <sym>Tall Tower</sym>
    <extensions>
      <gpxx:WaypointExtension>
        <gpxx:DisplayMode>SymbolAndName</gpxx:DisplayMode>
        <gpxx:Categories>
          <gpxx:Category>REPEATERS</gpxx:Category>
        </gpxx:Categories>
      </gpxx:WaypointExtension>
    </extensions>
  </wpt>
    <wpt lat="41.36840057" lon="-82.10769653">

    <name>KC8BED 444.175000+ 131.8</name>
    <cmt>
      Elyria, LCCC KC8BED OPEN    </cmt>
    <desc>
      Elyria, LCCC KC8BED OPEN    </desc>
    <sym>Tall Tower</sym>
    <extensions>
      <gpxx:WaypointExtension>
        <gpxx:DisplayMode>SymbolAndName</gpxx:DisplayMode>
        <gpxx:Categories>
          <gpxx:Category>REPEATERS</gpxx:Category>
        </gpxx:Categories>
      </gpxx:WaypointExtension>
    </extensions>
  </wpt>
    <wpt lat="39.96" lon="-83.00">

    <name>WA8PYR 444.175000+ 82.5</name>
    <cmt>
      Columbus WA8PYR OPEN    </cmt>
    <desc>
      Columbus WA8PYR OPEN    </desc>
    <sym>Tall Tower</sym>
    <extensions>
      <gpxx:WaypointExtension>
        <gpxx:DisplayMode>SymbolAndName</gpxx:DisplayMode>
        <gpxx:Categories>
          <gpxx:Category>REPEATERS</gpxx:Category>
        </gpxx:Categories>
      </gpxx:WaypointExtension>
    </extensions>
  </wpt>
    <wpt lat="41.66" lon="-83.56">

    <name>KE8HCG 444.162500+ </name>
    <cmt>
      Toledo KE8HCG OPEN    </cmt>
    <desc>
      Toledo KE8HCG OPEN    </desc>
    <sym>Tall Tower</sym>
    <extensions>
      <gpxx:WaypointExtension>
        <gpxx:DisplayMode>SymbolAndName</gpxx:DisplayMode>
        <gpxx:Categories>
          <gpxx:Category>REPEATERS</gpxx:Category>
        </gpxx:Categories>
      </gpxx:WaypointExtension>
    </extensions>
  </wpt>
    <wpt lat="38.93" lon="-83.45">

    <name>WD8LSN 444.162500+ 100.0</name>
    <cmt>
      Peebles WD8LSN OPEN    </cmt>
    <desc>
      Peebles WD8LSN OPEN    </desc>
    <sym>Tall Tower</sym>
    <extensions>
      <gpxx:WaypointExtension>
        <gpxx:DisplayMode>SymbolAndName</gpxx:DisplayMode>
        <gpxx:Categories>
          <gpxx:Category>REPEATERS</gpxx:Category>
        </gpxx:Categories>
      </gpxx:WaypointExtension>
    </extensions>
  </wpt>
    <wpt lat="41.61" lon="-81.45">

    <name>WA8PKB 444.150000+ </name>
    <cmt>
      Wickliffe WA8PKB OPEN    </cmt>
    <desc>
      Wickliffe WA8PKB OPEN    </desc>
    <sym>Tall Tower</sym>
    <extensions>
      <gpxx:WaypointExtension>
        <gpxx:DisplayMode>SymbolAndName</gpxx:DisplayMode>
        <gpxx:Categories>
          <gpxx:Category>REPEATERS</gpxx:Category>
        </gpxx:Categories>
      </gpxx:WaypointExtension>
    </extensions>
  </wpt>
    <wpt lat="41.04" lon="-83.65">

    <name>W8FT 444.150000+ 88.5</name>
    <cmt>
      Findlay W8FT OPEN    </cmt>
    <desc>
      Findlay W8FT OPEN    </desc>
    <sym>Tall Tower</sym>
    <extensions>
      <gpxx:WaypointExtension>
        <gpxx:DisplayMode>SymbolAndName</gpxx:DisplayMode>
        <gpxx:Categories>
          <gpxx:Category>REPEATERS</gpxx:Category>
        </gpxx:Categories>
      </gpxx:WaypointExtension>
    </extensions>
  </wpt>
    <wpt lat="41.45" lon="-82.18">

    <name>WD8CHL 444.125000+ 131.8</name>
    <cmt>
      Lorain WD8CHL CLOSED    </cmt>
    <desc>
      Lorain WD8CHL CLOSED    </desc>
    <sym>Tall Tower</sym>
    <extensions>
      <gpxx:WaypointExtension>
        <gpxx:DisplayMode>SymbolAndName</gpxx:DisplayMode>
        <gpxx:Categories>
          <gpxx:Category>REPEATERS</gpxx:Category>
        </gpxx:Categories>
      </gpxx:WaypointExtension>
    </extensions>
  </wpt>
    <wpt lat="39.39307900" lon="-84.60629100">

    <name>KD8EYB 444.112500+ 118.8</name>
    <cmt>
      Hamilton KD8EYB OPEN    </cmt>
    <desc>
      Hamilton KD8EYB OPEN    </desc>
    <sym>Tall Tower</sym>
    <extensions>
      <gpxx:WaypointExtension>
        <gpxx:DisplayMode>SymbolAndName</gpxx:DisplayMode>
        <gpxx:Categories>
          <gpxx:Category>REPEATERS</gpxx:Category>
        </gpxx:Categories>
      </gpxx:WaypointExtension>
    </extensions>
  </wpt>
    <wpt lat="39.91" lon="-82.02">

    <name>KD8USF 444.100000+ </name>
    <cmt>
      Zanesville, EMA KD8USF OPEN    </cmt>
    <desc>
      Zanesville, EMA KD8USF OPEN    </desc>
    <sym>Tall Tower</sym>
    <extensions>
      <gpxx:WaypointExtension>
        <gpxx:DisplayMode>SymbolAndName</gpxx:DisplayMode>
        <gpxx:Categories>
          <gpxx:Category>REPEATERS</gpxx:Category>
        </gpxx:Categories>
      </gpxx:WaypointExtension>
    </extensions>
  </wpt>
    <wpt lat="39.42" lon="-81.45">

    <name>N8OJ 444.100000+ </name>
    <cmt>
      Marietta N8OJ OPEN    </cmt>
    <desc>
      Marietta N8OJ OPEN    </desc>
    <sym>Tall Tower</sym>
    <extensions>
      <gpxx:WaypointExtension>
        <gpxx:DisplayMode>SymbolAndName</gpxx:DisplayMode>
        <gpxx:Categories>
          <gpxx:Category>REPEATERS</gpxx:Category>
        </gpxx:Categories>
      </gpxx:WaypointExtension>
    </extensions>
  </wpt>
    <wpt lat="41.23" lon="-81.42">

    <name>W8HD 444.087500+ CSQ</name>
    <cmt>
      Hudson W8HD OPEN    </cmt>
    <desc>
      Hudson W8HD OPEN    </desc>
    <sym>Tall Tower</sym>
    <extensions>
      <gpxx:WaypointExtension>
        <gpxx:DisplayMode>SymbolAndName</gpxx:DisplayMode>
        <gpxx:Categories>
          <gpxx:Category>REPEATERS</gpxx:Category>
        </gpxx:Categories>
      </gpxx:WaypointExtension>
    </extensions>
  </wpt>
    <wpt lat="39.10" lon="-84.51">

    <name>KB8SBN 444.075000+ 110.9</name>
    <cmt>
      Cincinnati KB8SBN CLOSED    </cmt>
    <desc>
      Cincinnati KB8SBN CLOSED    </desc>
    <sym>Tall Tower</sym>
    <extensions>
      <gpxx:WaypointExtension>
        <gpxx:DisplayMode>SymbolAndName</gpxx:DisplayMode>
        <gpxx:Categories>
          <gpxx:Category>REPEATERS</gpxx:Category>
        </gpxx:Categories>
      </gpxx:WaypointExtension>
    </extensions>
  </wpt>
    <wpt lat="41.36309814" lon="-81.71600342">

    <name>W8DRZ 444.050000+ 131.8</name>
    <cmt>
      Parma, WJW-TV Tower W8DRZ OPEN    </cmt>
    <desc>
      Parma, WJW-TV Tower W8DRZ OPEN    </desc>
    <sym>Tall Tower</sym>
    <extensions>
      <gpxx:WaypointExtension>
        <gpxx:DisplayMode>SymbolAndName</gpxx:DisplayMode>
        <gpxx:Categories>
          <gpxx:Category>REPEATERS</gpxx:Category>
        </gpxx:Categories>
      </gpxx:WaypointExtension>
    </extensions>
  </wpt>
    <wpt lat="39.35" lon="-83.55">

    <name>KB8DOT 444.037500+ </name>
    <cmt>
      Leesburg, North Joint Fire and Ambulance KB8DOT OPEN    </cmt>
    <desc>
      Leesburg, North Joint Fire and Ambulance KB8DOT OPEN    </desc>
    <sym>Tall Tower</sym>
    <extensions>
      <gpxx:WaypointExtension>
        <gpxx:DisplayMode>SymbolAndName</gpxx:DisplayMode>
        <gpxx:Categories>
          <gpxx:Category>REPEATERS</gpxx:Category>
        </gpxx:Categories>
      </gpxx:WaypointExtension>
    </extensions>
  </wpt>
    <wpt lat="40.87517100" lon="-82.24844800">

    <name>N8IHI 444.037500+ 71.9</name>
    <cmt>
      Ashland N8IHI OPEN    </cmt>
    <desc>
      Ashland N8IHI OPEN    </desc>
    <sym>Tall Tower</sym>
    <extensions>
      <gpxx:WaypointExtension>
        <gpxx:DisplayMode>SymbolAndName</gpxx:DisplayMode>
        <gpxx:Categories>
          <gpxx:Category>REPEATERS</gpxx:Category>
        </gpxx:Categories>
      </gpxx:WaypointExtension>
    </extensions>
  </wpt>
    <wpt lat="38.93439865" lon="-83.45099640">

    <name>WD8LSN 444.025000+ 100.0</name>
    <cmt>
      Peebles WD8LSN OPEN    </cmt>
    <desc>
      Peebles WD8LSN OPEN    </desc>
    <sym>Tall Tower</sym>
    <extensions>
      <gpxx:WaypointExtension>
        <gpxx:DisplayMode>SymbolAndName</gpxx:DisplayMode>
        <gpxx:Categories>
          <gpxx:Category>REPEATERS</gpxx:Category>
        </gpxx:Categories>
      </gpxx:WaypointExtension>
    </extensions>
  </wpt>
    <wpt lat="39.74" lon="-84.64">

    <name>W8VFR 444.025000+ 74.4</name>
    <cmt>
      Eaton W8VFR OPEN    </cmt>
    <desc>
      Eaton W8VFR OPEN    </desc>
    <sym>Tall Tower</sym>
    <extensions>
      <gpxx:WaypointExtension>
        <gpxx:DisplayMode>SymbolAndName</gpxx:DisplayMode>
        <gpxx:Categories>
          <gpxx:Category>REPEATERS</gpxx:Category>
        </gpxx:Categories>
      </gpxx:WaypointExtension>
    </extensions>
  </wpt>
    <wpt lat="41.42" lon="-81.92">

    <name>W8IZ 444.012500+ 131.8</name>
    <cmt>
      North Olmsted W8IZ OPEN    </cmt>
    <desc>
      North Olmsted W8IZ OPEN    </desc>
    <sym>Tall Tower</sym>
    <extensions>
      <gpxx:WaypointExtension>
        <gpxx:DisplayMode>SymbolAndName</gpxx:DisplayMode>
        <gpxx:Categories>
          <gpxx:Category>REPEATERS</gpxx:Category>
        </gpxx:Categories>
      </gpxx:WaypointExtension>
    </extensions>
  </wpt>
    <wpt lat="41.03" lon="-81.64">

    <name>WD8KNL 444.000000+ </name>
    <cmt>
      Norton WD8KNL OPEN    </cmt>
    <desc>
      Norton WD8KNL OPEN    </desc>
    <sym>Tall Tower</sym>
    <extensions>
      <gpxx:WaypointExtension>
        <gpxx:DisplayMode>SymbolAndName</gpxx:DisplayMode>
        <gpxx:Categories>
          <gpxx:Category>REPEATERS</gpxx:Category>
        </gpxx:Categories>
      </gpxx:WaypointExtension>
    </extensions>
  </wpt>
    <wpt lat="39.12471535" lon="-84.49872632">

    <name>K8BIG 444.000000+ 123.0</name>
    <cmt>
      Cincinnati K8BIG OPEN    </cmt>
    <desc>
      Cincinnati K8BIG OPEN    </desc>
    <sym>Tall Tower</sym>
    <extensions>
      <gpxx:WaypointExtension>
        <gpxx:DisplayMode>SymbolAndName</gpxx:DisplayMode>
        <gpxx:Categories>
          <gpxx:Category>REPEATERS</gpxx:Category>
        </gpxx:Categories>
      </gpxx:WaypointExtension>
    </extensions>
  </wpt>
    <wpt lat="41.37" lon="-82.11">

    <name>KA8VDW 443.987500+ 162.2</name>
    <cmt>
      Elyria KA8VDW OPEN    </cmt>
    <desc>
      Elyria KA8VDW OPEN    </desc>
    <sym>Tall Tower</sym>
    <extensions>
      <gpxx:WaypointExtension>
        <gpxx:DisplayMode>SymbolAndName</gpxx:DisplayMode>
        <gpxx:Categories>
          <gpxx:Category>REPEATERS</gpxx:Category>
        </gpxx:Categories>
      </gpxx:WaypointExtension>
    </extensions>
  </wpt>
    <wpt lat="39.95" lon="-82.81">

    <name>W8LAD 443.950000+ </name>
    <cmt>
      Reynoldsburg W8LAD OPEN    </cmt>
    <desc>
      Reynoldsburg W8LAD OPEN    </desc>
    <sym>Tall Tower</sym>
    <extensions>
      <gpxx:WaypointExtension>
        <gpxx:DisplayMode>SymbolAndName</gpxx:DisplayMode>
        <gpxx:Categories>
          <gpxx:Category>REPEATERS</gpxx:Category>
        </gpxx:Categories>
      </gpxx:WaypointExtension>
    </extensions>
  </wpt>
    <wpt lat="41.14" lon="-81.86">

    <name>K8MD 443.950000+ 131.8</name>
    <cmt>
      Medina K8MD OPEN    </cmt>
    <desc>
      Medina K8MD OPEN    </desc>
    <sym>Tall Tower</sym>
    <extensions>
      <gpxx:WaypointExtension>
        <gpxx:DisplayMode>SymbolAndName</gpxx:DisplayMode>
        <gpxx:Categories>
          <gpxx:Category>REPEATERS</gpxx:Category>
        </gpxx:Categories>
      </gpxx:WaypointExtension>
    </extensions>
  </wpt>
    <wpt lat="41.24" lon="-81.64">

    <name>KA8JOY 443.925000+ 131.8</name>
    <cmt>
      Richfield KA8JOY OPEN    </cmt>
    <desc>
      Richfield KA8JOY OPEN    </desc>
    <sym>Tall Tower</sym>
    <extensions>
      <gpxx:WaypointExtension>
        <gpxx:DisplayMode>SymbolAndName</gpxx:DisplayMode>
        <gpxx:Categories>
          <gpxx:Category>REPEATERS</gpxx:Category>
        </gpxx:Categories>
      </gpxx:WaypointExtension>
    </extensions>
  </wpt>
    <wpt lat="41.37" lon="-83.65">

    <name>WD8LEI 443.912500+ </name>
    <cmt>
      Bowling Green WD8LEI OPEN    </cmt>
    <desc>
      Bowling Green WD8LEI OPEN    </desc>
    <sym>Tall Tower</sym>
    <extensions>
      <gpxx:WaypointExtension>
        <gpxx:DisplayMode>SymbolAndName</gpxx:DisplayMode>
        <gpxx:Categories>
          <gpxx:Category>REPEATERS</gpxx:Category>
        </gpxx:Categories>
      </gpxx:WaypointExtension>
    </extensions>
  </wpt>
    <wpt lat="41.31" lon="-81.72">

    <name>WA8CEW 443.900000+ 131.8</name>
    <cmt>
      North Royalton WA8CEW OPEN    </cmt>
    <desc>
      North Royalton WA8CEW OPEN    </desc>
    <sym>Tall Tower</sym>
    <extensions>
      <gpxx:WaypointExtension>
        <gpxx:DisplayMode>SymbolAndName</gpxx:DisplayMode>
        <gpxx:Categories>
          <gpxx:Category>REPEATERS</gpxx:Category>
        </gpxx:Categories>
      </gpxx:WaypointExtension>
    </extensions>
  </wpt>
    <wpt lat="39.12513009" lon="-84.49893764">

    <name>K8BIG 443.900000+ </name>
    <cmt>
      Cincinnati K8BIG OPEN    </cmt>
    <desc>
      Cincinnati K8BIG OPEN    </desc>
    <sym>Tall Tower</sym>
    <extensions>
      <gpxx:WaypointExtension>
        <gpxx:DisplayMode>SymbolAndName</gpxx:DisplayMode>
        <gpxx:Categories>
          <gpxx:Category>REPEATERS</gpxx:Category>
        </gpxx:Categories>
      </gpxx:WaypointExtension>
    </extensions>
  </wpt>
    <wpt lat="41.01050186" lon="-84.02239990">

    <name>W8ZRZ 443.887500+ 107.2</name>
    <cmt>
      Ottawa W8ZRZ OPEN    </cmt>
    <desc>
      Ottawa W8ZRZ OPEN    </desc>
    <sym>Tall Tower</sym>
    <extensions>
      <gpxx:WaypointExtension>
        <gpxx:DisplayMode>SymbolAndName</gpxx:DisplayMode>
        <gpxx:Categories>
          <gpxx:Category>REPEATERS</gpxx:Category>
        </gpxx:Categories>
      </gpxx:WaypointExtension>
    </extensions>
  </wpt>
    <wpt lat="40.83" lon="-80.54">

    <name>W8GMM 443.875000+ 162.2</name>
    <cmt>
      East Palestine W8GMM OPEN    </cmt>
    <desc>
      East Palestine W8GMM OPEN    </desc>
    <sym>Tall Tower</sym>
    <extensions>
      <gpxx:WaypointExtension>
        <gpxx:DisplayMode>SymbolAndName</gpxx:DisplayMode>
        <gpxx:Categories>
          <gpxx:Category>REPEATERS</gpxx:Category>
        </gpxx:Categories>
      </gpxx:WaypointExtension>
    </extensions>
  </wpt>
    <wpt lat="41.33" lon="-80.73">

    <name>WA8ILI 443.875000+ </name>
    <cmt>
      Cortland WA8ILI OPEN    </cmt>
    <desc>
      Cortland WA8ILI OPEN    </desc>
    <sym>Tall Tower</sym>
    <extensions>
      <gpxx:WaypointExtension>
        <gpxx:DisplayMode>SymbolAndName</gpxx:DisplayMode>
        <gpxx:Categories>
          <gpxx:Category>REPEATERS</gpxx:Category>
        </gpxx:Categories>
      </gpxx:WaypointExtension>
    </extensions>
  </wpt>
    <wpt lat="40.81" lon="-82.98">

    <name>KD8NCL 443.875000+ CSQ</name>
    <cmt>
      Bucyrus KD8NCL OPEN    </cmt>
    <desc>
      Bucyrus KD8NCL OPEN    </desc>
    <sym>Tall Tower</sym>
    <extensions>
      <gpxx:WaypointExtension>
        <gpxx:DisplayMode>SymbolAndName</gpxx:DisplayMode>
        <gpxx:Categories>
          <gpxx:Category>REPEATERS</gpxx:Category>
        </gpxx:Categories>
      </gpxx:WaypointExtension>
    </extensions>
  </wpt>
    <wpt lat="41.51" lon="-83.15">

    <name>WB8JLT 443.850000+ 186.2</name>
    <cmt>
      Oak Harbor WB8JLT OPEN    </cmt>
    <desc>
      Oak Harbor WB8JLT OPEN    </desc>
    <sym>Tall Tower</sym>
    <extensions>
      <gpxx:WaypointExtension>
        <gpxx:DisplayMode>SymbolAndName</gpxx:DisplayMode>
        <gpxx:Categories>
          <gpxx:Category>REPEATERS</gpxx:Category>
        </gpxx:Categories>
      </gpxx:WaypointExtension>
    </extensions>
  </wpt>
    <wpt lat="41.05" lon="-81.66">

    <name>KD8DRG 443.850000+ </name>
    <cmt>
      Norton KD8DRG OPEN    </cmt>
    <desc>
      Norton KD8DRG OPEN    </desc>
    <sym>Tall Tower</sym>
    <extensions>
      <gpxx:WaypointExtension>
        <gpxx:DisplayMode>SymbolAndName</gpxx:DisplayMode>
        <gpxx:Categories>
          <gpxx:Category>REPEATERS</gpxx:Category>
        </gpxx:Categories>
      </gpxx:WaypointExtension>
    </extensions>
  </wpt>
    <wpt lat="39.40" lon="-81.55">

    <name>W8JTW 443.850000+ 186.2</name>
    <cmt>
      Marietta W8JTW OPEN    </cmt>
    <desc>
      Marietta W8JTW OPEN    </desc>
    <sym>Tall Tower</sym>
    <extensions>
      <gpxx:WaypointExtension>
        <gpxx:DisplayMode>SymbolAndName</gpxx:DisplayMode>
        <gpxx:Categories>
          <gpxx:Category>REPEATERS</gpxx:Category>
        </gpxx:Categories>
      </gpxx:WaypointExtension>
    </extensions>
  </wpt>
    <wpt lat="41.40" lon="-81.72">

    <name>K8ZFR 443.825000+ 131.8</name>
    <cmt>
      Parma K8ZFR OPEN    </cmt>
    <desc>
      Parma K8ZFR OPEN    </desc>
    <sym>Tall Tower</sym>
    <extensions>
      <gpxx:WaypointExtension>
        <gpxx:DisplayMode>SymbolAndName</gpxx:DisplayMode>
        <gpxx:Categories>
          <gpxx:Category>REPEATERS</gpxx:Category>
        </gpxx:Categories>
      </gpxx:WaypointExtension>
    </extensions>
  </wpt>
    <wpt lat="40.36" lon="-83.76">

    <name>W8FTV 443.825000+ 186.2</name>
    <cmt>
      Bellefontaine, Campbell Hill W8FTV OPEN    </cmt>
    <desc>
      Bellefontaine, Campbell Hill W8FTV OPEN    </desc>
    <sym>Tall Tower</sym>
    <extensions>
      <gpxx:WaypointExtension>
        <gpxx:DisplayMode>SymbolAndName</gpxx:DisplayMode>
        <gpxx:Categories>
          <gpxx:Category>REPEATERS</gpxx:Category>
        </gpxx:Categories>
      </gpxx:WaypointExtension>
    </extensions>
  </wpt>
    <wpt lat="41.11" lon="-83.18">

    <name>K8EMR 443.800000+ 107.2</name>
    <cmt>
      Tiffin K8EMR OPEN    </cmt>
    <desc>
      Tiffin K8EMR OPEN    </desc>
    <sym>Tall Tower</sym>
    <extensions>
      <gpxx:WaypointExtension>
        <gpxx:DisplayMode>SymbolAndName</gpxx:DisplayMode>
        <gpxx:Categories>
          <gpxx:Category>REPEATERS</gpxx:Category>
        </gpxx:Categories>
      </gpxx:WaypointExtension>
    </extensions>
  </wpt>
    <wpt lat="41.47" lon="-81.54">

    <name>KD8LDE 443.800000+ CSQ</name>
    <cmt>
      Shaker Heights, Shaker Towers KD8LDE OPEN    </cmt>
    <desc>
      Shaker Heights, Shaker Towers KD8LDE OPEN    </desc>
    <sym>Tall Tower</sym>
    <extensions>
      <gpxx:WaypointExtension>
        <gpxx:DisplayMode>SymbolAndName</gpxx:DisplayMode>
        <gpxx:Categories>
          <gpxx:Category>REPEATERS</gpxx:Category>
        </gpxx:Categories>
      </gpxx:WaypointExtension>
    </extensions>
  </wpt>
    <wpt lat="39.27" lon="-84.26">

    <name>WB8BFS 443.800000+ 67.0</name>
    <cmt>
      Loveland WB8BFS OPEN    </cmt>
    <desc>
      Loveland WB8BFS OPEN    </desc>
    <sym>Tall Tower</sym>
    <extensions>
      <gpxx:WaypointExtension>
        <gpxx:DisplayMode>SymbolAndName</gpxx:DisplayMode>
        <gpxx:Categories>
          <gpxx:Category>REPEATERS</gpxx:Category>
        </gpxx:Categories>
      </gpxx:WaypointExtension>
    </extensions>
  </wpt>
    <wpt lat="41.10" lon="-81.44">

    <name>KC8LIN 443.787500+ 131.8</name>
    <cmt>
      Akron KC8LIN OPEN    </cmt>
    <desc>
      Akron KC8LIN OPEN    </desc>
    <sym>Tall Tower</sym>
    <extensions>
      <gpxx:WaypointExtension>
        <gpxx:DisplayMode>SymbolAndName</gpxx:DisplayMode>
        <gpxx:Categories>
          <gpxx:Category>REPEATERS</gpxx:Category>
        </gpxx:Categories>
      </gpxx:WaypointExtension>
    </extensions>
  </wpt>
    <wpt lat="40.37450027" lon="-80.70210266">

    <name>WD8IIJ 443.775000+ </name>
    <cmt>
      Wintersville, Blessed Sacrament Church WD8IIJ OPEN    </cmt>
    <desc>
      Wintersville, Blessed Sacrament Church WD8IIJ OPEN    </desc>
    <sym>Tall Tower</sym>
    <extensions>
      <gpxx:WaypointExtension>
        <gpxx:DisplayMode>SymbolAndName</gpxx:DisplayMode>
        <gpxx:Categories>
          <gpxx:Category>REPEATERS</gpxx:Category>
        </gpxx:Categories>
      </gpxx:WaypointExtension>
    </extensions>
  </wpt>
    <wpt lat="41.50" lon="-83.72">

    <name> 443.750000+ </name>
    <cmt>
      Waterville  OPEN    </cmt>
    <desc>
      Waterville  OPEN    </desc>
    <sym>Tall Tower</sym>
    <extensions>
      <gpxx:WaypointExtension>
        <gpxx:DisplayMode>SymbolAndName</gpxx:DisplayMode>
        <gpxx:Categories>
          <gpxx:Category>REPEATERS</gpxx:Category>
        </gpxx:Categories>
      </gpxx:WaypointExtension>
    </extensions>
  </wpt>
    <wpt lat="40.88" lon="-81.40">

    <name>KC8WVH 443.750000+ 131.8</name>
    <cmt>
      North Canton KC8WVH OPEN    </cmt>
    <desc>
      North Canton KC8WVH OPEN    </desc>
    <sym>Tall Tower</sym>
    <extensions>
      <gpxx:WaypointExtension>
        <gpxx:DisplayMode>SymbolAndName</gpxx:DisplayMode>
        <gpxx:Categories>
          <gpxx:Category>REPEATERS</gpxx:Category>
        </gpxx:Categories>
      </gpxx:WaypointExtension>
    </extensions>
  </wpt>
    <wpt lat="41.13" lon="-81.61">

    <name>N8NOQ 443.750000+ 131.8</name>
    <cmt>
      Fairlawn N8NOQ PRIVATE    </cmt>
    <desc>
      Fairlawn N8NOQ PRIVATE    </desc>
    <sym>Tall Tower</sym>
    <extensions>
      <gpxx:WaypointExtension>
        <gpxx:DisplayMode>SymbolAndName</gpxx:DisplayMode>
        <gpxx:Categories>
          <gpxx:Category>REPEATERS</gpxx:Category>
        </gpxx:Categories>
      </gpxx:WaypointExtension>
    </extensions>
  </wpt>
    <wpt lat="41.24" lon="-80.82">

    <name>N8DOD 443.725000+ 131.8</name>
    <cmt>
      Warren N8DOD OPEN    </cmt>
    <desc>
      Warren N8DOD OPEN    </desc>
    <sym>Tall Tower</sym>
    <extensions>
      <gpxx:WaypointExtension>
        <gpxx:DisplayMode>SymbolAndName</gpxx:DisplayMode>
        <gpxx:Categories>
          <gpxx:Category>REPEATERS</gpxx:Category>
        </gpxx:Categories>
      </gpxx:WaypointExtension>
    </extensions>
  </wpt>
    <wpt lat="39.03" lon="-82.03">

    <name>K8ATG 443.700000+ 91.5</name>
    <cmt>
      Pomeroy K8ATG OPEN    </cmt>
    <desc>
      Pomeroy K8ATG OPEN    </desc>
    <sym>Tall Tower</sym>
    <extensions>
      <gpxx:WaypointExtension>
        <gpxx:DisplayMode>SymbolAndName</gpxx:DisplayMode>
        <gpxx:Categories>
          <gpxx:Category>REPEATERS</gpxx:Category>
        </gpxx:Categories>
      </gpxx:WaypointExtension>
    </extensions>
  </wpt>
    <wpt lat="41.04420090" lon="-83.64990234">

    <name>W8FT 443.700000+ </name>
    <cmt>
      Findlay W8FT OPEN    </cmt>
    <desc>
      Findlay W8FT OPEN    </desc>
    <sym>Tall Tower</sym>
    <extensions>
      <gpxx:WaypointExtension>
        <gpxx:DisplayMode>SymbolAndName</gpxx:DisplayMode>
        <gpxx:Categories>
          <gpxx:Category>REPEATERS</gpxx:Category>
        </gpxx:Categories>
      </gpxx:WaypointExtension>
    </extensions>
  </wpt>
    <wpt lat="39.10" lon="-84.51">

    <name>W8NWS 443.700000+ </name>
    <cmt>
      Cincinnati W8NWS OPEN    </cmt>
    <desc>
      Cincinnati W8NWS OPEN    </desc>
    <sym>Tall Tower</sym>
    <extensions>
      <gpxx:WaypointExtension>
        <gpxx:DisplayMode>SymbolAndName</gpxx:DisplayMode>
        <gpxx:Categories>
          <gpxx:Category>REPEATERS</gpxx:Category>
        </gpxx:Categories>
      </gpxx:WaypointExtension>
    </extensions>
  </wpt>
    <wpt lat="40.08" lon="-84.64">

    <name>W8FLH 443.687500+ </name>
    <cmt>
      Greenville W8FLH OPEN    </cmt>
    <desc>
      Greenville W8FLH OPEN    </desc>
    <sym>Tall Tower</sym>
    <extensions>
      <gpxx:WaypointExtension>
        <gpxx:DisplayMode>SymbolAndName</gpxx:DisplayMode>
        <gpxx:Categories>
          <gpxx:Category>REPEATERS</gpxx:Category>
        </gpxx:Categories>
      </gpxx:WaypointExtension>
    </extensions>
  </wpt>
    <wpt lat="40.80" lon="-81.52">

    <name>WA8GXM 443.675000+ D023</name>
    <cmt>
      Massillon WA8GXM OPEN    </cmt>
    <desc>
      Massillon WA8GXM OPEN    </desc>
    <sym>Tall Tower</sym>
    <extensions>
      <gpxx:WaypointExtension>
        <gpxx:DisplayMode>SymbolAndName</gpxx:DisplayMode>
        <gpxx:Categories>
          <gpxx:Category>REPEATERS</gpxx:Category>
        </gpxx:Categories>
      </gpxx:WaypointExtension>
    </extensions>
  </wpt>
    <wpt lat="39.64" lon="-84.07">

    <name>W8DGN 443.675000+ 118.8</name>
    <cmt>
      Bellbrook W8DGN OPEN    </cmt>
    <desc>
      Bellbrook W8DGN OPEN    </desc>
    <sym>Tall Tower</sym>
    <extensions>
      <gpxx:WaypointExtension>
        <gpxx:DisplayMode>SymbolAndName</gpxx:DisplayMode>
        <gpxx:Categories>
          <gpxx:Category>REPEATERS</gpxx:Category>
        </gpxx:Categories>
      </gpxx:WaypointExtension>
    </extensions>
  </wpt>
    <wpt lat="41.04" lon="-82.53">

    <name>N0CZV 443.675000+ 131.8</name>
    <cmt>
      Attica N0CZV OPEN    </cmt>
    <desc>
      Attica N0CZV OPEN    </desc>
    <sym>Tall Tower</sym>
    <extensions>
      <gpxx:WaypointExtension>
        <gpxx:DisplayMode>SymbolAndName</gpxx:DisplayMode>
        <gpxx:Categories>
          <gpxx:Category>REPEATERS</gpxx:Category>
        </gpxx:Categories>
      </gpxx:WaypointExtension>
    </extensions>
  </wpt>
    <wpt lat="39.35680008" lon="-84.35659790">

    <name>WC8VOA 443.650000+ </name>
    <cmt>
      West Chester, VOA Museum WC8VOA OPEN    </cmt>
    <desc>
      West Chester, VOA Museum WC8VOA OPEN    </desc>
    <sym>Tall Tower</sym>
    <extensions>
      <gpxx:WaypointExtension>
        <gpxx:DisplayMode>SymbolAndName</gpxx:DisplayMode>
        <gpxx:Categories>
          <gpxx:Category>REPEATERS</gpxx:Category>
        </gpxx:Categories>
      </gpxx:WaypointExtension>
    </extensions>
  </wpt>
    <wpt lat="41.67412000" lon="-81.02389700">

    <name>N8XUA 443.650000+ 103.5</name>
    <cmt>
      Thompson N8XUA CLOSED    </cmt>
    <desc>
      Thompson N8XUA CLOSED    </desc>
    <sym>Tall Tower</sym>
    <extensions>
      <gpxx:WaypointExtension>
        <gpxx:DisplayMode>SymbolAndName</gpxx:DisplayMode>
        <gpxx:Categories>
          <gpxx:Category>REPEATERS</gpxx:Category>
        </gpxx:Categories>
      </gpxx:WaypointExtension>
    </extensions>
  </wpt>
    <wpt lat="40.04" lon="-84.20">

    <name>KB8MUV 443.637500+ </name>
    <cmt>
      Troy KB8MUV OPEN    </cmt>
    <desc>
      Troy KB8MUV OPEN    </desc>
    <sym>Tall Tower</sym>
    <extensions>
      <gpxx:WaypointExtension>
        <gpxx:DisplayMode>SymbolAndName</gpxx:DisplayMode>
        <gpxx:Categories>
          <gpxx:Category>REPEATERS</gpxx:Category>
        </gpxx:Categories>
      </gpxx:WaypointExtension>
    </extensions>
  </wpt>
    <wpt lat="40.94" lon="-82.22">

    <name>KA8VDW 443.625000+ 162.2</name>
    <cmt>
      Polk KA8VDW OPEN    </cmt>
    <desc>
      Polk KA8VDW OPEN    </desc>
    <sym>Tall Tower</sym>
    <extensions>
      <gpxx:WaypointExtension>
        <gpxx:DisplayMode>SymbolAndName</gpxx:DisplayMode>
        <gpxx:Categories>
          <gpxx:Category>REPEATERS</gpxx:Category>
        </gpxx:Categories>
      </gpxx:WaypointExtension>
    </extensions>
  </wpt>
    <wpt lat="39.39602800" lon="-81.22589100">

    <name>K8KHW 443.600000+ 103.5</name>
    <cmt>
      Newport K8KHW OPEN    </cmt>
    <desc>
      Newport K8KHW OPEN    </desc>
    <sym>Tall Tower</sym>
    <extensions>
      <gpxx:WaypointExtension>
        <gpxx:DisplayMode>SymbolAndName</gpxx:DisplayMode>
        <gpxx:Categories>
          <gpxx:Category>REPEATERS</gpxx:Category>
        </gpxx:Categories>
      </gpxx:WaypointExtension>
    </extensions>
  </wpt>
    <wpt lat="40.06" lon="-82.40">

    <name>W8AJL 443.600000+ 71.9</name>
    <cmt>
      Newark W8AJL OPEN    </cmt>
    <desc>
      Newark W8AJL OPEN    </desc>
    <sym>Tall Tower</sym>
    <extensions>
      <gpxx:WaypointExtension>
        <gpxx:DisplayMode>SymbolAndName</gpxx:DisplayMode>
        <gpxx:Categories>
          <gpxx:Category>REPEATERS</gpxx:Category>
        </gpxx:Categories>
      </gpxx:WaypointExtension>
    </extensions>
  </wpt>
    <wpt lat="41.45" lon="-82.18">

    <name>WA8CAE 443.600000+ 131.8</name>
    <cmt>
      Lorain WA8CAE OPEN    </cmt>
    <desc>
      Lorain WA8CAE OPEN    </desc>
    <sym>Tall Tower</sym>
    <extensions>
      <gpxx:WaypointExtension>
        <gpxx:DisplayMode>SymbolAndName</gpxx:DisplayMode>
        <gpxx:Categories>
          <gpxx:Category>REPEATERS</gpxx:Category>
        </gpxx:Categories>
      </gpxx:WaypointExtension>
    </extensions>
  </wpt>
    <wpt lat="39.76458000" lon="-84.13829000">

    <name>NY1A 443.600000+ 123.0</name>
    <cmt>
      Dayton NY1A OPEN    </cmt>
    <desc>
      Dayton NY1A OPEN    </desc>
    <sym>Tall Tower</sym>
    <extensions>
      <gpxx:WaypointExtension>
        <gpxx:DisplayMode>SymbolAndName</gpxx:DisplayMode>
        <gpxx:Categories>
          <gpxx:Category>REPEATERS</gpxx:Category>
        </gpxx:Categories>
      </gpxx:WaypointExtension>
    </extensions>
  </wpt>
    <wpt lat="41.08" lon="-81.52">

    <name>KD8YCF 443.587500+ </name>
    <cmt>
      Akron KD8YCF OPEN    </cmt>
    <desc>
      Akron KD8YCF OPEN    </desc>
    <sym>Tall Tower</sym>
    <extensions>
      <gpxx:WaypointExtension>
        <gpxx:DisplayMode>SymbolAndName</gpxx:DisplayMode>
        <gpxx:Categories>
          <gpxx:Category>REPEATERS</gpxx:Category>
        </gpxx:Categories>
      </gpxx:WaypointExtension>
    </extensions>
  </wpt>
    <wpt lat="39.29980087" lon="-84.57350159">

    <name>W8KJ 443.575000+ </name>
    <cmt>
      Fairfield W8KJ OPEN    </cmt>
    <desc>
      Fairfield W8KJ OPEN    </desc>
    <sym>Tall Tower</sym>
    <extensions>
      <gpxx:WaypointExtension>
        <gpxx:DisplayMode>SymbolAndName</gpxx:DisplayMode>
        <gpxx:Categories>
          <gpxx:Category>REPEATERS</gpxx:Category>
        </gpxx:Categories>
      </gpxx:WaypointExtension>
    </extensions>
  </wpt>
    <wpt lat="41.30" lon="-82.49">

    <name>KD8AVO 443.575000+ </name>
    <cmt>
      Berlin Heights KD8AVO OPEN    </cmt>
    <desc>
      Berlin Heights KD8AVO OPEN    </desc>
    <sym>Tall Tower</sym>
    <extensions>
      <gpxx:WaypointExtension>
        <gpxx:DisplayMode>SymbolAndName</gpxx:DisplayMode>
        <gpxx:Categories>
          <gpxx:Category>REPEATERS</gpxx:Category>
        </gpxx:Categories>
      </gpxx:WaypointExtension>
    </extensions>
  </wpt>
    <wpt lat="41.10" lon="-84.13">

    <name>NO8C 443.562500+ 107.2</name>
    <cmt>
      Miller City NO8C OPEN    </cmt>
    <desc>
      Miller City NO8C OPEN    </desc>
    <sym>Tall Tower</sym>
    <extensions>
      <gpxx:WaypointExtension>
        <gpxx:DisplayMode>SymbolAndName</gpxx:DisplayMode>
        <gpxx:Categories>
          <gpxx:Category>REPEATERS</gpxx:Category>
        </gpxx:Categories>
      </gpxx:WaypointExtension>
    </extensions>
  </wpt>
    <wpt lat="39.76" lon="-84.14">

    <name>NY1A 443.562500+ </name>
    <cmt>
      Dayton NY1A OPEN    </cmt>
    <desc>
      Dayton NY1A OPEN    </desc>
    <sym>Tall Tower</sym>
    <extensions>
      <gpxx:WaypointExtension>
        <gpxx:DisplayMode>SymbolAndName</gpxx:DisplayMode>
        <gpxx:Categories>
          <gpxx:Category>REPEATERS</gpxx:Category>
        </gpxx:Categories>
      </gpxx:WaypointExtension>
    </extensions>
  </wpt>
    <wpt lat="41.28" lon="-81.22">

    <name>KD8DRG 443.550000+ </name>
    <cmt>
      Mantua KD8DRG OPEN    </cmt>
    <desc>
      Mantua KD8DRG OPEN    </desc>
    <sym>Tall Tower</sym>
    <extensions>
      <gpxx:WaypointExtension>
        <gpxx:DisplayMode>SymbolAndName</gpxx:DisplayMode>
        <gpxx:Categories>
          <gpxx:Category>REPEATERS</gpxx:Category>
        </gpxx:Categories>
      </gpxx:WaypointExtension>
    </extensions>
  </wpt>
    <wpt lat="39.51509857" lon="-84.39830017">

    <name>W8MUM 443.537500+ 94.8</name>
    <cmt>
      Middletown W8MUM OPEN    </cmt>
    <desc>
      Middletown W8MUM OPEN    </desc>
    <sym>Tall Tower</sym>
    <extensions>
      <gpxx:WaypointExtension>
        <gpxx:DisplayMode>SymbolAndName</gpxx:DisplayMode>
        <gpxx:Categories>
          <gpxx:Category>REPEATERS</gpxx:Category>
        </gpxx:Categories>
      </gpxx:WaypointExtension>
    </extensions>
  </wpt>
    <wpt lat="40.33" lon="-81.74">

    <name>KB9JSC 443.537500+ 162.2</name>
    <cmt>
      Fresno KB9JSC OPEN    </cmt>
    <desc>
      Fresno KB9JSC OPEN    </desc>
    <sym>Tall Tower</sym>
    <extensions>
      <gpxx:WaypointExtension>
        <gpxx:DisplayMode>SymbolAndName</gpxx:DisplayMode>
        <gpxx:Categories>
          <gpxx:Category>REPEATERS</gpxx:Category>
        </gpxx:Categories>
      </gpxx:WaypointExtension>
    </extensions>
  </wpt>
    <wpt lat="41.67" lon="-84.33">

    <name>K8BSR 443.537500+ 67.0</name>
    <cmt>
      Fayette K8BSR OPEN    </cmt>
    <desc>
      Fayette K8BSR OPEN    </desc>
    <sym>Tall Tower</sym>
    <extensions>
      <gpxx:WaypointExtension>
        <gpxx:DisplayMode>SymbolAndName</gpxx:DisplayMode>
        <gpxx:Categories>
          <gpxx:Category>REPEATERS</gpxx:Category>
        </gpxx:Categories>
      </gpxx:WaypointExtension>
    </extensions>
  </wpt>
    <wpt lat="40.91770000" lon="-80.60580000">

    <name>KF8YF 443.525000+ 162.2</name>
    <cmt>
      New Springfield KF8YF OPEN    </cmt>
    <desc>
      New Springfield KF8YF OPEN    </desc>
    <sym>Tall Tower</sym>
    <extensions>
      <gpxx:WaypointExtension>
        <gpxx:DisplayMode>SymbolAndName</gpxx:DisplayMode>
        <gpxx:Categories>
          <gpxx:Category>REPEATERS</gpxx:Category>
        </gpxx:Categories>
      </gpxx:WaypointExtension>
    </extensions>
  </wpt>
    <wpt lat="41.37" lon="-83.65">

    <name>KD8BTI 443.512500+ 103.5</name>
    <cmt>
      Bowling Green KD8BTI OPEN    </cmt>
    <desc>
      Bowling Green KD8BTI OPEN    </desc>
    <sym>Tall Tower</sym>
    <extensions>
      <gpxx:WaypointExtension>
        <gpxx:DisplayMode>SymbolAndName</gpxx:DisplayMode>
        <gpxx:Categories>
          <gpxx:Category>REPEATERS</gpxx:Category>
        </gpxx:Categories>
      </gpxx:WaypointExtension>
    </extensions>
  </wpt>
    <wpt lat="40.39" lon="-81.35">

    <name>K8CQA 443.500000+ </name>
    <cmt>
      Uhrichsville K8CQA OPEN    </cmt>
    <desc>
      Uhrichsville K8CQA OPEN    </desc>
    <sym>Tall Tower</sym>
    <extensions>
      <gpxx:WaypointExtension>
        <gpxx:DisplayMode>SymbolAndName</gpxx:DisplayMode>
        <gpxx:Categories>
          <gpxx:Category>REPEATERS</gpxx:Category>
        </gpxx:Categories>
      </gpxx:WaypointExtension>
    </extensions>
  </wpt>
    <wpt lat="39.88" lon="-84.30">

    <name>KB8ZR 443.500000+ 103.5</name>
    <cmt>
      Englewood KB8ZR OPEN    </cmt>
    <desc>
      Englewood KB8ZR OPEN    </desc>
    <sym>Tall Tower</sym>
    <extensions>
      <gpxx:WaypointExtension>
        <gpxx:DisplayMode>SymbolAndName</gpxx:DisplayMode>
        <gpxx:Categories>
          <gpxx:Category>REPEATERS</gpxx:Category>
        </gpxx:Categories>
      </gpxx:WaypointExtension>
    </extensions>
  </wpt>
    <wpt lat="40.81" lon="-82.98">

    <name>KD8SIQ 443.487500+ 110.9</name>
    <cmt>
      Bucyrus KD8SIQ OPEN    </cmt>
    <desc>
      Bucyrus KD8SIQ OPEN    </desc>
    <sym>Tall Tower</sym>
    <extensions>
      <gpxx:WaypointExtension>
        <gpxx:DisplayMode>SymbolAndName</gpxx:DisplayMode>
        <gpxx:Categories>
          <gpxx:Category>REPEATERS</gpxx:Category>
        </gpxx:Categories>
      </gpxx:WaypointExtension>
    </extensions>
  </wpt>
    <wpt lat="41.70" lon="-81.27">

    <name>N1TVI 443.475000+ </name>
    <cmt>
      Mentor, Lake County Fairgrounds N1TVI OPEN    </cmt>
    <desc>
      Mentor, Lake County Fairgrounds N1TVI OPEN    </desc>
    <sym>Tall Tower</sym>
    <extensions>
      <gpxx:WaypointExtension>
        <gpxx:DisplayMode>SymbolAndName</gpxx:DisplayMode>
        <gpxx:Categories>
          <gpxx:Category>REPEATERS</gpxx:Category>
        </gpxx:Categories>
      </gpxx:WaypointExtension>
    </extensions>
  </wpt>
    <wpt lat="41.24010086" lon="-81.44069672">

    <name>KD8DFL 443.475000+ </name>
    <cmt>
      Hudson KD8DFL OPEN    </cmt>
    <desc>
      Hudson KD8DFL OPEN    </desc>
    <sym>Tall Tower</sym>
    <extensions>
      <gpxx:WaypointExtension>
        <gpxx:DisplayMode>SymbolAndName</gpxx:DisplayMode>
        <gpxx:Categories>
          <gpxx:Category>REPEATERS</gpxx:Category>
        </gpxx:Categories>
      </gpxx:WaypointExtension>
    </extensions>
  </wpt>
    <wpt lat="39.12" lon="-84.14">

    <name>K8DV 443.450000+ CSQ</name>
    <cmt>
      Owensville K8DV OPEN    </cmt>
    <desc>
      Owensville K8DV OPEN    </desc>
    <sym>Tall Tower</sym>
    <extensions>
      <gpxx:WaypointExtension>
        <gpxx:DisplayMode>SymbolAndName</gpxx:DisplayMode>
        <gpxx:Categories>
          <gpxx:Category>REPEATERS</gpxx:Category>
        </gpxx:Categories>
      </gpxx:WaypointExtension>
    </extensions>
  </wpt>
    <wpt lat="41.46315500" lon="-81.28817800">

    <name>N8XUA 443.450000+ 103.5</name>
    <cmt>
      Newbury N8XUA CLOSED    </cmt>
    <desc>
      Newbury N8XUA CLOSED    </desc>
    <sym>Tall Tower</sym>
    <extensions>
      <gpxx:WaypointExtension>
        <gpxx:DisplayMode>SymbolAndName</gpxx:DisplayMode>
        <gpxx:Categories>
          <gpxx:Category>REPEATERS</gpxx:Category>
        </gpxx:Categories>
      </gpxx:WaypointExtension>
    </extensions>
  </wpt>
    <wpt lat="40.24" lon="-83.37">

    <name>K8JWL 443.450000+ 136.5</name>
    <cmt>
      Marysville K8JWL OPEN    </cmt>
    <desc>
      Marysville K8JWL OPEN    </desc>
    <sym>Tall Tower</sym>
    <extensions>
      <gpxx:WaypointExtension>
        <gpxx:DisplayMode>SymbolAndName</gpxx:DisplayMode>
        <gpxx:Categories>
          <gpxx:Category>REPEATERS</gpxx:Category>
        </gpxx:Categories>
      </gpxx:WaypointExtension>
    </extensions>
  </wpt>
    <wpt lat="41.35" lon="-83.12">

    <name>KC8EPF 443.450000+ </name>
    <cmt>
      Fremont KC8EPF OPEN    </cmt>
    <desc>
      Fremont KC8EPF OPEN    </desc>
    <sym>Tall Tower</sym>
    <extensions>
      <gpxx:WaypointExtension>
        <gpxx:DisplayMode>SymbolAndName</gpxx:DisplayMode>
        <gpxx:Categories>
          <gpxx:Category>REPEATERS</gpxx:Category>
        </gpxx:Categories>
      </gpxx:WaypointExtension>
    </extensions>
  </wpt>
    <wpt lat="41.24300003" lon="-81.71309662">

    <name>W8WGD 443.425000+ 131.8</name>
    <cmt>
      Hinckley Township W8WGD OPEN    </cmt>
    <desc>
      Hinckley Township W8WGD OPEN    </desc>
    <sym>Tall Tower</sym>
    <extensions>
      <gpxx:WaypointExtension>
        <gpxx:DisplayMode>SymbolAndName</gpxx:DisplayMode>
        <gpxx:Categories>
          <gpxx:Category>REPEATERS</gpxx:Category>
        </gpxx:Categories>
      </gpxx:WaypointExtension>
    </extensions>
  </wpt>
    <wpt lat="39.93" lon="-83.04">

    <name>NG8N 443.425000+ 71.9</name>
    <cmt>
      Columbus NG8N OPEN    </cmt>
    <desc>
      Columbus NG8N OPEN    </desc>
    <sym>Tall Tower</sym>
    <extensions>
      <gpxx:WaypointExtension>
        <gpxx:DisplayMode>SymbolAndName</gpxx:DisplayMode>
        <gpxx:Categories>
          <gpxx:Category>REPEATERS</gpxx:Category>
        </gpxx:Categories>
      </gpxx:WaypointExtension>
    </extensions>
  </wpt>
    <wpt lat="39.92419815" lon="-83.80879974">

    <name>KC8NYH 443.412500+ 123.0</name>
    <cmt>
      Springfield KC8NYH OPEN    </cmt>
    <desc>
      Springfield KC8NYH OPEN    </desc>
    <sym>Tall Tower</sym>
    <extensions>
      <gpxx:WaypointExtension>
        <gpxx:DisplayMode>SymbolAndName</gpxx:DisplayMode>
        <gpxx:Categories>
          <gpxx:Category>REPEATERS</gpxx:Category>
        </gpxx:Categories>
      </gpxx:WaypointExtension>
    </extensions>
  </wpt>
    <wpt lat="39.42" lon="-81.45">

    <name>W8HH 443.400000+ 91.5</name>
    <cmt>
      Marietta W8HH OPEN    </cmt>
    <desc>
      Marietta W8HH OPEN    </desc>
    <sym>Tall Tower</sym>
    <extensions>
      <gpxx:WaypointExtension>
        <gpxx:DisplayMode>SymbolAndName</gpxx:DisplayMode>
        <gpxx:Categories>
          <gpxx:Category>REPEATERS</gpxx:Category>
        </gpxx:Categories>
      </gpxx:WaypointExtension>
    </extensions>
  </wpt>
    <wpt lat="39.27370071" lon="-84.52919769">

    <name>WB8CRS 443.400000+ </name>
    <cmt>
      Cincinnati, Mobilcomm WB8CRS OPEN    </cmt>
    <desc>
      Cincinnati, Mobilcomm WB8CRS OPEN    </desc>
    <sym>Tall Tower</sym>
    <extensions>
      <gpxx:WaypointExtension>
        <gpxx:DisplayMode>SymbolAndName</gpxx:DisplayMode>
        <gpxx:Categories>
          <gpxx:Category>REPEATERS</gpxx:Category>
        </gpxx:Categories>
      </gpxx:WaypointExtension>
    </extensions>
  </wpt>
    <wpt lat="39.45" lon="-83.83">

    <name>K8IO 443.375000+ 123.0</name>
    <cmt>
      Wilmington K8IO OPEN    </cmt>
    <desc>
      Wilmington K8IO OPEN    </desc>
    <sym>Tall Tower</sym>
    <extensions>
      <gpxx:WaypointExtension>
        <gpxx:DisplayMode>SymbolAndName</gpxx:DisplayMode>
        <gpxx:Categories>
          <gpxx:Category>REPEATERS</gpxx:Category>
        </gpxx:Categories>
      </gpxx:WaypointExtension>
    </extensions>
  </wpt>
    <wpt lat="40.05440140" lon="-83.86769867">

    <name>AB8DD 443.350000+ CSQ</name>
    <cmt>
      Urbana AB8DD CLOSED    </cmt>
    <desc>
      Urbana AB8DD CLOSED    </desc>
    <sym>Tall Tower</sym>
    <extensions>
      <gpxx:WaypointExtension>
        <gpxx:DisplayMode>SymbolAndName</gpxx:DisplayMode>
        <gpxx:Categories>
          <gpxx:Category>REPEATERS</gpxx:Category>
        </gpxx:Categories>
      </gpxx:WaypointExtension>
    </extensions>
  </wpt>
    <wpt lat="41.05" lon="-80.62">

    <name>W8RAR 443.350000+ 110.9</name>
    <cmt>
      Struthers W8RAR OPEN    </cmt>
    <desc>
      Struthers W8RAR OPEN    </desc>
    <sym>Tall Tower</sym>
    <extensions>
      <gpxx:WaypointExtension>
        <gpxx:DisplayMode>SymbolAndName</gpxx:DisplayMode>
        <gpxx:Categories>
          <gpxx:Category>REPEATERS</gpxx:Category>
        </gpxx:Categories>
      </gpxx:WaypointExtension>
    </extensions>
  </wpt>
    <wpt lat="41.69190600" lon="-81.04653100">

    <name>N1TVI 443.337500+ 131.8</name>
    <cmt>
      Thompson N1TVI OPEN    </cmt>
    <desc>
      Thompson N1TVI OPEN    </desc>
    <sym>Tall Tower</sym>
    <extensions>
      <gpxx:WaypointExtension>
        <gpxx:DisplayMode>SymbolAndName</gpxx:DisplayMode>
        <gpxx:Categories>
          <gpxx:Category>REPEATERS</gpxx:Category>
        </gpxx:Categories>
      </gpxx:WaypointExtension>
    </extensions>
  </wpt>
    <wpt lat="39.40" lon="-84.56">

    <name>W8WRK 443.337500+ </name>
    <cmt>
      Hamilton W8WRK OPEN    </cmt>
    <desc>
      Hamilton W8WRK OPEN    </desc>
    <sym>Tall Tower</sym>
    <extensions>
      <gpxx:WaypointExtension>
        <gpxx:DisplayMode>SymbolAndName</gpxx:DisplayMode>
        <gpxx:Categories>
          <gpxx:Category>REPEATERS</gpxx:Category>
        </gpxx:Categories>
      </gpxx:WaypointExtension>
    </extensions>
  </wpt>
    <wpt lat="40.28" lon="-81.75">

    <name>WX8OH 443.325000+ 71.9</name>
    <cmt>
      West Lafayette WX8OH OPEN    </cmt>
    <desc>
      West Lafayette WX8OH OPEN    </desc>
    <sym>Tall Tower</sym>
    <extensions>
      <gpxx:WaypointExtension>
        <gpxx:DisplayMode>SymbolAndName</gpxx:DisplayMode>
        <gpxx:Categories>
          <gpxx:Category>REPEATERS</gpxx:Category>
        </gpxx:Categories>
      </gpxx:WaypointExtension>
    </extensions>
  </wpt>
    <wpt lat="38.83" lon="-83.06">

    <name>KB8RBT 443.325000+ 186.2</name>
    <cmt>
      McDermott KB8RBT OPEN    </cmt>
    <desc>
      McDermott KB8RBT OPEN    </desc>
    <sym>Tall Tower</sym>
    <extensions>
      <gpxx:WaypointExtension>
        <gpxx:DisplayMode>SymbolAndName</gpxx:DisplayMode>
        <gpxx:Categories>
          <gpxx:Category>REPEATERS</gpxx:Category>
        </gpxx:Categories>
      </gpxx:WaypointExtension>
    </extensions>
  </wpt>
    <wpt lat="40.97" lon="-82.11">

    <name>KE8X 443.300000+ 131.8</name>
    <cmt>
      West Salem KE8X OPEN    </cmt>
    <desc>
      West Salem KE8X OPEN    </desc>
    <sym>Tall Tower</sym>
    <extensions>
      <gpxx:WaypointExtension>
        <gpxx:DisplayMode>SymbolAndName</gpxx:DisplayMode>
        <gpxx:Categories>
          <gpxx:Category>REPEATERS</gpxx:Category>
        </gpxx:Categories>
      </gpxx:WaypointExtension>
    </extensions>
  </wpt>
    <wpt lat="39.92" lon="-83.81">

    <name>W8BUZ 443.300000+ 146.2</name>
    <cmt>
      Springfield, Ohio Masonic Home W8BUZ OPEN    </cmt>
    <desc>
      Springfield, Ohio Masonic Home W8BUZ OPEN    </desc>
    <sym>Tall Tower</sym>
    <extensions>
      <gpxx:WaypointExtension>
        <gpxx:DisplayMode>SymbolAndName</gpxx:DisplayMode>
        <gpxx:Categories>
          <gpxx:Category>REPEATERS</gpxx:Category>
        </gpxx:Categories>
      </gpxx:WaypointExtension>
    </extensions>
  </wpt>
    <wpt lat="41.64" lon="-83.49">

    <name>N8UAS 443.300000+ 103.5</name>
    <cmt>
      Oregon N8UAS OPEN    </cmt>
    <desc>
      Oregon N8UAS OPEN    </desc>
    <sym>Tall Tower</sym>
    <extensions>
      <gpxx:WaypointExtension>
        <gpxx:DisplayMode>SymbolAndName</gpxx:DisplayMode>
        <gpxx:Categories>
          <gpxx:Category>REPEATERS</gpxx:Category>
        </gpxx:Categories>
      </gpxx:WaypointExtension>
    </extensions>
  </wpt>
    <wpt lat="40.14" lon="-82.68">

    <name>KD8USF 443.287500+ </name>
    <cmt>
      Johnstown KD8USF OPEN    </cmt>
    <desc>
      Johnstown KD8USF OPEN    </desc>
    <sym>Tall Tower</sym>
    <extensions>
      <gpxx:WaypointExtension>
        <gpxx:DisplayMode>SymbolAndName</gpxx:DisplayMode>
        <gpxx:Categories>
          <gpxx:Category>REPEATERS</gpxx:Category>
        </gpxx:Categories>
      </gpxx:WaypointExtension>
    </extensions>
  </wpt>
    <wpt lat="39.51" lon="-83.86">

    <name>N8ASB 443.275000+ </name>
    <cmt>
      Wilmington, Clinton County Airport N8ASB OPEN    </cmt>
    <desc>
      Wilmington, Clinton County Airport N8ASB OPEN    </desc>
    <sym>Tall Tower</sym>
    <extensions>
      <gpxx:WaypointExtension>
        <gpxx:DisplayMode>SymbolAndName</gpxx:DisplayMode>
        <gpxx:Categories>
          <gpxx:Category>REPEATERS</gpxx:Category>
        </gpxx:Categories>
      </gpxx:WaypointExtension>
    </extensions>
  </wpt>
    <wpt lat="41.59167000" lon="-82.68889000">

    <name>N3GPM 443.275000+ </name>
    <cmt>
      Kelleys Island N3GPM OPEN    </cmt>
    <desc>
      Kelleys Island N3GPM OPEN    </desc>
    <sym>Tall Tower</sym>
    <extensions>
      <gpxx:WaypointExtension>
        <gpxx:DisplayMode>SymbolAndName</gpxx:DisplayMode>
        <gpxx:Categories>
          <gpxx:Category>REPEATERS</gpxx:Category>
        </gpxx:Categories>
      </gpxx:WaypointExtension>
    </extensions>
  </wpt>
    <wpt lat="40.42" lon="-82.91">

    <name>WB8REI 443.262500+ 107.2</name>
    <cmt>
      Tiffin WB8REI OPEN    </cmt>
    <desc>
      Tiffin WB8REI OPEN    </desc>
    <sym>Tall Tower</sym>
    <extensions>
      <gpxx:WaypointExtension>
        <gpxx:DisplayMode>SymbolAndName</gpxx:DisplayMode>
        <gpxx:Categories>
          <gpxx:Category>REPEATERS</gpxx:Category>
        </gpxx:Categories>
      </gpxx:WaypointExtension>
    </extensions>
  </wpt>
    <wpt lat="39.84" lon="-84.12">

    <name>K1CCN 443.262500+ </name>
    <cmt>
      Huber Heights, W8BI Clubhouse K1CCN OPEN    </cmt>
    <desc>
      Huber Heights, W8BI Clubhouse K1CCN OPEN    </desc>
    <sym>Tall Tower</sym>
    <extensions>
      <gpxx:WaypointExtension>
        <gpxx:DisplayMode>SymbolAndName</gpxx:DisplayMode>
        <gpxx:Categories>
          <gpxx:Category>REPEATERS</gpxx:Category>
        </gpxx:Categories>
      </gpxx:WaypointExtension>
    </extensions>
  </wpt>
    <wpt lat="41.05767100" lon="-80.63810000">

    <name>W8IZC 443.250000+ </name>
    <cmt>
      Youngstown W8IZC OPEN    </cmt>
    <desc>
      Youngstown W8IZC OPEN    </desc>
    <sym>Tall Tower</sym>
    <extensions>
      <gpxx:WaypointExtension>
        <gpxx:DisplayMode>SymbolAndName</gpxx:DisplayMode>
        <gpxx:Categories>
          <gpxx:Category>REPEATERS</gpxx:Category>
        </gpxx:Categories>
      </gpxx:WaypointExtension>
    </extensions>
  </wpt>
    <wpt lat="39.12" lon="-82.53">

    <name>N8OJ 443.250000+ </name>
    <cmt>
      Wellston N8OJ OPEN    </cmt>
    <desc>
      Wellston N8OJ OPEN    </desc>
    <sym>Tall Tower</sym>
    <extensions>
      <gpxx:WaypointExtension>
        <gpxx:DisplayMode>SymbolAndName</gpxx:DisplayMode>
        <gpxx:Categories>
          <gpxx:Category>REPEATERS</gpxx:Category>
        </gpxx:Categories>
      </gpxx:WaypointExtension>
    </extensions>
  </wpt>
    <wpt lat="39.89" lon="-84.04">

    <name>W8RMF 443.237500+ 141.3</name>
    <cmt>
      New Carlisle W8RMF OPEN    </cmt>
    <desc>
      New Carlisle W8RMF OPEN    </desc>
    <sym>Tall Tower</sym>
    <extensions>
      <gpxx:WaypointExtension>
        <gpxx:DisplayMode>SymbolAndName</gpxx:DisplayMode>
        <gpxx:Categories>
          <gpxx:Category>REPEATERS</gpxx:Category>
        </gpxx:Categories>
      </gpxx:WaypointExtension>
    </extensions>
  </wpt>
    <wpt lat="41.10" lon="-80.65">

    <name>N8FAL 443.225000+ 156.7</name>
    <cmt>
      Youngstown N8FAL OPEN    </cmt>
    <desc>
      Youngstown N8FAL OPEN    </desc>
    <sym>Tall Tower</sym>
    <extensions>
      <gpxx:WaypointExtension>
        <gpxx:DisplayMode>SymbolAndName</gpxx:DisplayMode>
        <gpxx:Categories>
          <gpxx:Category>REPEATERS</gpxx:Category>
        </gpxx:Categories>
      </gpxx:WaypointExtension>
    </extensions>
  </wpt>
    <wpt lat="41.47" lon="-84.55">

    <name>KA8OFE 443.212500+ 107.2</name>
    <cmt>
      Bryan KA8OFE OPEN    </cmt>
    <desc>
      Bryan KA8OFE OPEN    </desc>
    <sym>Tall Tower</sym>
    <extensions>
      <gpxx:WaypointExtension>
        <gpxx:DisplayMode>SymbolAndName</gpxx:DisplayMode>
        <gpxx:Categories>
          <gpxx:Category>REPEATERS</gpxx:Category>
        </gpxx:Categories>
      </gpxx:WaypointExtension>
    </extensions>
  </wpt>
    <wpt lat="40.28" lon="-84.16">

    <name>KE8BCY 443.200000+ 156.7</name>
    <cmt>
      Sidney KE8BCY OPEN    </cmt>
    <desc>
      Sidney KE8BCY OPEN    </desc>
    <sym>Tall Tower</sym>
    <extensions>
      <gpxx:WaypointExtension>
        <gpxx:DisplayMode>SymbolAndName</gpxx:DisplayMode>
        <gpxx:Categories>
          <gpxx:Category>REPEATERS</gpxx:Category>
        </gpxx:Categories>
      </gpxx:WaypointExtension>
    </extensions>
  </wpt>
    <wpt lat="40.57" lon="-81.09">

    <name>K8VPJ 443.200000+ 131.8</name>
    <cmt>
      Carrollton K8VPJ OPEN    </cmt>
    <desc>
      Carrollton K8VPJ OPEN    </desc>
    <sym>Tall Tower</sym>
    <extensions>
      <gpxx:WaypointExtension>
        <gpxx:DisplayMode>SymbolAndName</gpxx:DisplayMode>
        <gpxx:Categories>
          <gpxx:Category>REPEATERS</gpxx:Category>
        </gpxx:Categories>
      </gpxx:WaypointExtension>
    </extensions>
  </wpt>